,positionName,companyShortName,companySize,industryField,financeStage,companyLabelList,firstType,secondType,thirdType,city,district,salary,salaryMonth,workYear,jobNature,education,positionAdvantage,latitude,longitude,neededSkills
0,高级/资深业务数据分析师,拉勾网,500-2000人,企业服务,D轮及以上,"['五险一金', '弹性工作', '带薪年假', '免费两餐']",开发|测试|运维类,数据开发,数据分析,北京,海淀区,20k-40k,13,3-5年,全职,本科,领导Nice，能力提升，团队氛围好，稳定职业,39.982128,116.307747,"['python', 'R', 'Spark', '建业务分析模型', '教育']"
1,02326I-数据分析师,平安人寿,2000人以上,金融,上市公司,"['绩效奖金', '带薪年假', '定期体检', '节日礼物']",产品|需求|项目类,数据分析,BI,上海,浦东新区,12k-22k,0,1-3年,全职,本科,"五险一金,带薪年假,定期体检,免费班车",31.238157,121.666906,"['数据库', '保险', '数据分析', '互联网金融', '商业', 'BI']"
2,02324X-用户运营（数据分析方向）,平安人寿,2000人以上,金融,上市公司,"['绩效奖金', '带薪年假', '定期体检', '节日礼物']",运营|编辑|客服类,运营,数据运营,上海,浦东新区,10k-20k,0,1-3年,全职,本科,"五险一金,带薪年假,定期体检,免费班车",31.238157,121.666906,"['保险', '互联网金融', '数据分析']"
3,游戏数据分析,快手,2000人以上,文娱丨内容,D轮及以上,"['股票期权', '弹性工作', '定期体检', '岗位晋升']",产品|需求|项目类,数据分析,数据分析,北京,海淀区,15k-30k,0,3-5年,全职,本科,福利完善,40.053389,116.298440,['数据分析']
4,数据分析师,字节跳动,2000人以上,文娱丨内容,C轮,"['扁平管理', '弹性工作', '大厨定制三餐', '就近租房补贴']",产品|需求|项目类,数据分析,数据分析,北京,海淀区,15k-30k,0,1-3年,全职,本科,"免费三餐,带薪休假,弹性工作,六险一金",39.971819,116.328708,['数据分析']
5,数据分析师,跟谁学,2000人以上,"移动互联网,教育",上市公司,"['节日礼物', '技能培训', '股票期权', '精英团队']",产品|需求|项目类,产品经理,数据分析师,北京,海淀区,15k-25k,0,3-5年,全职,本科,上市公司 独角兽 平台发展好 团队年轻化,40.048632,116.282935,"['在线教育产品', '数据分析']"
6,数据分析师,字节跳动,2000人以上,文娱丨内容,C轮,"['扁平管理', '弹性工作', '大厨定制三餐', '就近租房补贴']",产品|需求|项目类,数据分析,数据分析,上海,闵行区,11k-22k,0,1-3年,全职,本科,"下午茶,健身瑜伽,六险一金,团队氛围好",31.168496,121.386878,"['产品', '数据分析']"
7,数据分析师,拉勾网,500-2000人,企业服务,D轮及以上,"['五险一金', '弹性工作', '带薪年假', '免费两餐']",产品|需求|项目类,数据分析,数据分析,北京,海淀区,10k-20k,0,1-3年,全职,本科,福利待遇好，周末双休，提供午餐和晚餐,39.982128,116.307747,['数据分析']
8,数据分析师,百变大侦探,15-50人,"移动互联网,文娱丨内容",不需要融资,"['年底双薪', '带薪年假', '股票期权', '扁平管理']",产品|需求|项目类,产品经理,数据分析师,北京,朝阳区,15k-25k,0,3-5年,全职,本科,五险一金 免费工作餐 定期体检,39.974830,116.500218,"['用户增长', '需求分析', '用户研究', '数据分析']"
9,数据分析,世纪佳缘,2000人以上,移动互联网,上市公司,"['节日礼物', '技能培训', '绩效奖金', '岗位晋升']",开发|测试|运维类,数据开发,数据分析,北京,朝阳区,15k-25k,0,3-5年,全职,本科,"六险一金,成熟团队,上升空间",39.974358,116.406840,"['sql', '数据分析', '社交']"
10,数据分析师,世纪佳缘,2000人以上,移动互联网,上市公司,"['节日礼物', '技能培训', '绩效奖金', '岗位晋升']",产品|需求|项目类,产品经理,数据分析师,北京,朝阳区,11k-20k,0,不限,全职,本科,成熟团队，上升空间,39.974358,116.406840,['数据分析']
11,数据分析师,优车库,50-150人,"移动互联网,消费生活",A轮,"['年底双薪', '股票期权', '专项奖金', '带薪年假']",开发|测试|运维类,数据开发,数据分析,深圳,福田区,8k-15k,0,1-3年,全职,本科,发展前景、环境优美、团队氛围好,22.507374,114.045254,"['SQLServer', '数仓建模', '新零售', '数据仓库', '汽车', 'Python']"
12,数据分析师,智器云,50-150人,"数据服务,企业服务",B轮,"['股票期权', '绩效奖金', '带薪年假', '通讯津贴']",产品|需求|项目类,产品经理,数据分析师,北京,房山区,5k-9k,13,不限,全职,本科,高成长性、团队氛围好、福利完善,39.749144,116.143267,"['工具软件', '数据分析']"
13,数据分析师,盛业恒泰投资,50-150人,金融,未融资,[],产品|需求|项目类,数据分析,数据分析,北京,朝阳区,8k-15k,0,不限,全职,大专,双休,39.919894,116.454562,"['大数据', '金融', '数据分析']"
14,数据分析师,皮皮pipi,50-150人,"游戏,社交",不需要融资,[],产品|需求|项目类,产品经理,数据分析师,武汉,江夏区,10k-15k,13,1-3年,全职,本科,晋升快，扁平化管理,30.457603,114.425905,['数据分析']
0,数据分析师,百变大侦探,15-50人,"移动互联网,文娱丨内容",不需要融资,"['年底双薪', '带薪年假', '股票期权', '扁平管理']",产品|需求|项目类,产品经理,数据分析师,北京,朝阳区,15k-25k,0,3-5年,全职,本科,五险一金 免费工作餐 定期体检,39.974830,116.500218,"['用户增长', '需求分析', '用户研究', '数据分析']"
1,数据分析师,italki,50-150人,"电商,教育",A轮,"['高端医疗保险', '国际化团队', '绩效奖金', '带薪年假']",产品|需求|项目类,产品经理,数据分析师,上海,黄浦区,10k-15k,13,1-3年,全职,本科,国际化团队，带薪年假多，全球市场,31.222057,121.457585,"['社交', 'C端产品', '在线教育产品', '需求分析', '教育', '数据分析']"
2,数据分析师,字节跳动,2000人以上,文娱丨内容,C轮,"['扁平管理', '弹性工作', '大厨定制三餐', '就近租房补贴']",产品|需求|项目类,数据分析,数据分析,北京,海淀区,15k-30k,0,1-3年,全职,本科,"免费三餐,带薪休假,弹性工作,六险一金",39.971819,116.328708,['数据分析']
3,数据分析师,字节跳动,2000人以上,文娱丨内容,C轮,"['扁平管理', '弹性工作', '大厨定制三餐', '就近租房补贴']",产品|需求|项目类,数据分析,数据分析,上海,闵行区,11k-22k,0,1-3年,全职,本科,"下午茶,健身瑜伽,六险一金,团队氛围好",31.168496,121.386878,"['产品', '数据分析']"
4,数据分析师,优车库,50-150人,"移动互联网,消费生活",A轮,"['年底双薪', '股票期权', '专项奖金', '带薪年假']",开发|测试|运维类,数据开发,数据分析,深圳,福田区,8k-15k,0,1-3年,全职,本科,发展前景、环境优美、团队氛围好,22.507374,114.045254,"['SQLServer', '数仓建模', '新零售', '数据仓库', '汽车', 'Python']"
5,数据分析师,智器云,50-150人,"数据服务,企业服务",B轮,"['股票期权', '绩效奖金', '带薪年假', '通讯津贴']",产品|需求|项目类,产品经理,数据分析师,北京,房山区,5k-9k,13,不限,全职,本科,高成长性、团队氛围好、福利完善,39.749144,116.143267,"['工具软件', '数据分析']"
6,数据分析师,爱问医联,150-500人,"医疗丨健康,移动互联网",D轮及以上,"['股票期权', '带薪年假', '午餐补助', '五险一金']",运营|编辑|客服类,运营,数据运营,深圳,南山区,15k-20k,13,1-3年,全职,本科,微博平台 丰厚年终 大牛团队 行业准独角,22.535129,113.952487,"['医疗健康', '运营', '数据分析']"
7,数据分析,360os,500-2000人,信息安全,不需要融资,[],开发|测试|运维类,数据开发,数据分析,北京,朝阳区,15k-30k,0,3-5年,全职,本科,"大平台,核心部门,领导好",39.982769,116.490798,"['大数据', '数据分析', '数据挖掘']"
8,数据分析,盛业恒泰投资,50-150人,金融,未融资,[],开发|测试|运维类,数据开发,数据分析,北京,朝阳区,12k-15k,0,不限,全职,本科,弹性办公 周末双休 带薪年假,39.920432,116.454812,"['数据整理', '数据分析']"
9,数据分析师,成都玛尔斯科技有限公司,150-500人,"移动互联网,社交",未融资,[],开发|测试|运维类,数据开发,数据分析,成都,高新区,12k-20k,15,3-5年,全职,本科,弹性打卡，五险一金，15薪,30.766476,104.121569,['数据分析']
10,数据分析师,齐聚科技（原呱呱视频）,150-500人,"移动互联网,游戏",C轮,"['绩效奖金', '五险一金', '节日礼物', '定期体检']",产品|需求|项目类,数据分析,数据分析,北京,东城区,15k-20k,13,3-5年,全职,本科,"五险一金,弹性工作,餐补年终奖,节日福利",39.951490,116.422789,"['社交', '游戏', '商业', '数据分析', 'SQL']"
11,数据分析师,浙江盘石,2000人以上,"移动互联网,广告营销",D轮及以上,"['节日礼物', '股票期权', '带薪年假', '岗位晋升']",产品|需求|项目类,产品经理,数据分析师,杭州,拱墅区,6k-10k,0,1-3年,全职,本科,五险一金、包吃、健身房、带薪年假,30.336361,120.113116,['数据分析']
12,数据分析师,人人都是产品经理,50-150人,"企业服务,教育",A轮,"['节日礼物', '年度旅游', '领导好', '美女多']",产品|需求|项目类,数据分析,数据分析,深圳,南山区,7k-14k,0,1-3年,全职,本科,CEO指导、氛围好、十三薪、带薪年假,22.549041,113.943289,"['数据运营', '数据分析', '商业', '企业服务', '教育', 'BI']"
13,数据分析师,人人公司,2000人以上,"社交,金融",上市公司,"['五险一金', '通讯津贴', '带薪年假', '绩效奖金']",产品|需求|项目类,数据分析,数据分析,北京,朝阳区,15k-25k,0,3-5年,全职,本科,"弹性工作,领导好,市场前景好",39.976297,116.496989,['数据分析']
14,数据分析师,DataStory,150-500人,数据服务,B轮,"['颜值高', '双休日', '高大上团建', '带薪假']",市场|商务类,市场|营销,商业数据分析,上海,杨浦区,15k-20k,13,1-3年,全职,本科,五险一金 周末双休 扁平管理 氛围轻松,31.260278,121.512779,"['消费者分析', '数据分析']"
0,数据分析师,易观,150-500人,"移动互联网,数据服务",B轮,"['专项奖金', '午餐补助', '技能培训', '扁平管理']",产品|需求|项目类,数据分析,数据分析,北京,朝阳区,25k-50k,0,3-5年,全职,本科,六险一金/弹性工作/扁平管理,39.978305,116.494885,"['增长黑客', '数据运营', '商业', 'BI', '数据分析']"
1,数据分析师,皮皮pipi,50-150人,"游戏,社交",不需要融资,[],产品|需求|项目类,产品经理,数据分析师,武汉,江夏区,10k-15k,13,1-3年,全职,本科,晋升快，扁平化管理,30.457603,114.425905,['数据分析']
2,数据分析师,浙江盘石,2000人以上,"移动互联网,广告营销",D轮及以上,"['节日礼物', '股票期权', '带薪年假', '岗位晋升']",产品|需求|项目类,产品经理,数据分析师,杭州,拱墅区,6k-10k,0,1-3年,全职,本科,五险一金、包吃、健身房、带薪年假,30.336361,120.113116,['数据分析']
3,数据分析师,星尘游戏,150-500人,游戏,不需要融资,"['带薪年假', '节日礼物', '五险一金', '领导好']",开发|测试|运维类,数据开发,数据分析,深圳,南山区,15k-20k,0,3-5年,全职,本科,月度奖金 自由度高 上升空间大,22.537843,113.944830,"['媒体', '数据挖掘', '算法工程师', '移动互联网', 'Python']"
4,数据分析师,久谦咨询,50-150人,"企业服务,数据服务",未融资,"['专项奖金', '带薪年假', '绩效奖金', '定期体检']",产品|需求|项目类,数据分析,数据分析,上海,徐汇区,12k-20k,0,不限,全职,本科,福利待遇优厚，发展空间大，团队氛围好,31.194983,121.437780,"['新零售', '大数据', '数据分析']"
5,数据分析师,众标智能科技,50-150人,"电商,企业服务",A轮,"['股票期权', '带薪年假', '年度旅游', '五险一金']",产品|需求|项目类,数据分析,数据分析,上海,普陀区,7k-11k,0,1-3年,全职,本科,"大数据,发展前景好,福利待遇优,靠谱团队",31.228218,121.383389,"['数据库', '可视化', '数据分析', '移动互联网', '大数据', 'SQL']"
6,数据分析师,italki,50-150人,"电商,教育",A轮,"['高端医疗保险', '国际化团队', '绩效奖金', '带薪年假']",产品|需求|项目类,产品经理,数据分析师,上海,黄浦区,10k-15k,13,1-3年,全职,本科,国际化团队，带薪年假多，全球市场,31.222057,121.457585,"['社交', 'C端产品', '在线教育产品', '需求分析', '教育', '数据分析']"
7,数据分析,动视云科技,50-150人,"游戏,数据服务",A轮,"['岗位晋升', '通讯津贴', '定期体检', '午餐福利']",开发|测试|运维类,数据开发,数据分析,北京,西城区,15k-25k,0,3-5年,全职,本科,行业领先 大牌融资 高度投入 创新游戏体验,39.970538,116.383365,"['数仓建模', '数据运营', '数据分析', '游戏', '数据挖掘', '大数据']"
8,数据分析,360os,500-2000人,信息安全,不需要融资,[],开发|测试|运维类,数据开发,数据分析,北京,朝阳区,15k-30k,0,3-5年,全职,本科,"大平台,核心部门,领导好",39.982769,116.490798,"['大数据', '数据分析', '数据挖掘']"
9,数据分析师,字节跳动,2000人以上,文娱丨内容,C轮,"['扁平管理', '弹性工作', '大厨定制三餐', '就近租房补贴']",产品|需求|项目类,数据分析,数据分析,北京,海淀区,30k-60k,0,不限,全职,本科,"六险一金,股票期权,弹性工作,免费三餐",39.979578,116.369044,['数据分析']
10,数据分析师,字节跳动,2000人以上,文娱丨内容,C轮,"['扁平管理', '弹性工作', '大厨定制三餐', '就近租房补贴']",产品|需求|项目类,数据分析,数据分析,北京,海淀区,30k-60k,0,3-5年,全职,本科,"六险一金,弹性工作,免费三餐,租房补贴",39.979578,116.369044,['数据分析']
11,数据分析师,絮淑科技,150-500人,"社交,软件开发",不需要融资,[],产品|需求|项目类,产品经理,数据分析师,北京,未知,15k-20k,13,3-5年,全职,本科,项目好,,,"['体育', '直播', '数据分析']"
12,数据分析师,无添加,500-2000人,"电商,移动互联网",不需要融资,"['绩效奖金', '股票期权', '带薪年假', '交通补助']",产品|需求|项目类,产品经理,数据分析师,广州,天河区,9k-15k,0,1-3年,全职,本科,优秀团队 扁平管理 发展空间 项目管理,23.118269,113.327077,"['电商产品', '竞品分析', '电商', '快消品', '数据分析']"
13,数据分析师,成都玛尔斯科技有限公司,150-500人,"移动互联网,社交",未融资,[],开发|测试|运维类,数据开发,数据分析,成都,高新区,12k-20k,15,3-5年,全职,本科,弹性打卡，五险一金，15薪,30.766476,104.121569,['数据分析']
14,数据分析师,360数科,500-2000人,金融,上市公司,"['年底双薪', '股票期权', '带薪年假', '定期体检']",产品|需求|项目类,产品经理,数据分析师,北京,朝阳区,20k-35k,15,5-10年,全职,本科,"上市公司,包三餐,3-9个月年终奖",39.982794,116.490707,"['用户研究', '金融']"
0,数据分析师,字节跳动,2000人以上,文娱丨内容,C轮,"['扁平管理', '弹性工作', '大厨定制三餐', '就近租房补贴']",产品|需求|项目类,数据分析,数据分析,杭州,余杭区,15k-30k,0,不限,全职,本科,"下午茶,健身瑜伽,六险一金,五险一金",30.289958,120.046052,"['产品', '数据分析']"
1,数据分析师,字节跳动,2000人以上,文娱丨内容,C轮,"['扁平管理', '弹性工作', '大厨定制三餐', '就近租房补贴']",产品|需求|项目类,数据分析,数据分析,北京,海淀区,15k-30k,0,1-3年,全职,本科,"下午茶,五险一金,团队氛围好,大牛带队",40.013248,116.352742,"['项目管理', '数据分析']"
2,数据分析师,懒人科技,50-150人,移动互联网,不需要融资,[],产品|需求|项目类,数据分析,数据分析,深圳,南山区,10k-20k,0,1-3年,全职,本科,朝阳行业,22.518858,113.933883,"['数据库', '数据运营', '新零售', '本地生活', 'SQL']"
3,数据分析师,齐聚科技（原呱呱视频）,150-500人,"移动互联网,游戏",C轮,"['绩效奖金', '五险一金', '节日礼物', '定期体检']",产品|需求|项目类,数据分析,数据分析,北京,东城区,15k-20k,13,3-5年,全职,本科,"五险一金,弹性工作,餐补年终奖,节日福利",39.951490,116.422789,"['社交', '游戏', '商业', '数据分析', 'SQL']"
4,数据分析,51社保网,500-2000人,"企业服务,教育",C轮,"['绩效奖金', '专项奖金', '带薪年假', '弹性工作']",开发|测试|运维类,数据开发,数据分析,北京,朝阳区,10k-20k,0,3-5年,全职,本科,七险一金、带薪年假、扁平管理,39.906452,116.453331,['数据分析']
5,数据分析师,熵商科技（ENTROBUS）,15-50人,"移动互联网,数据服务",不需要融资,"['绩效奖金', '岗位晋升', '五险一金']",产品|需求|项目类,数据分析,数据分析,广州,番禺区,13k-25k,0,1-3年,全职,本科,地铁周边，周末双休，五险一金,23.045368,113.397243,"['大数据', '商业', '数据分析']"
6,数据分析师,浙江盘石,2000人以上,"移动互联网,广告营销",D轮及以上,"['节日礼物', '股票期权', '带薪年假', '岗位晋升']",产品|需求|项目类,产品经理,数据分析师,杭州,拱墅区,6k-10k,0,1-3年,全职,本科,五险一金、包吃、健身房、带薪年假,30.336361,120.113116,['数据分析']
7,数据分析师,51社保网,500-2000人,"企业服务,教育",C轮,"['绩效奖金', '专项奖金', '带薪年假', '弹性工作']",产品|需求|项目类,数据分析,数据分析,北京,朝阳区,15k-24k,0,3-5年,全职,本科,七险一金、带薪年假、扁平管理,39.906452,116.453331,"['企业服务', '数据分析']"
8,数据分析师,玄关健康,150-500人,"移动互联网,医疗丨健康",不需要融资,"['专项奖金', '定期体检', '带薪年假', '绩效奖金']",产品|需求|项目类,数据分析,数据分析,深圳,南山区,10k-14k,0,1-3年,全职,本科,六险一金，年度体检，团队旅游,22.555423,113.948979,"['可视化', '数据分析', '医疗健康', 'BI', 'SQL']"
9,数据分析师,Keep,500-2000人,"社交,文娱丨内容",D轮及以上,"['定期体检', '股票期权', '年底多薪', '岗位晋升']",产品|需求|项目类,产品经理,数据分析师,北京,朝阳区,15k-25k,14,3-5年,全职,本科,14-16薪，团队扁平化，活跃，上班弹性，创新有爱,39.989577,116.485583,"['移动产品/APP', '数据', '数据分析']"
10,数据分析师,智器云,50-150人,"数据服务,企业服务",B轮,"['股票期权', '绩效奖金', '带薪年假', '通讯津贴']",产品|需求|项目类,产品经理,数据分析师,乌鲁木齐,米东区,4k-7k,13,不限,全职,本科,行业大咖带队，技术牛人带飞，专业级工作开发,43.973579,87.655755,['数据分析']
11,数据分析师,蘑菇公司,50-150人,"移动互联网,金融",A轮,"['股票期权', '带薪年假', '岗位晋升', '扁平管理']",产品|需求|项目类,产品经理,数据分析师,深圳,南山区,15k-30k,0,3-5年,全职,本科,朝阳行业 **,22.535752,113.952439,"['项目管理', '需求分析', '直播', '教育', '数据分析']"
12,数据分析师,么么直播,50-150人,"移动互联网,社交",不需要融资,"['扁平管理', '节日礼物', '年度旅游', '五险一金']",产品|需求|项目类,数据分析,数据分析,上海,闵行区,15k-25k,13,1-3年,全职,本科,"行业前景好,人性化管理,福利好",31.172123,121.374390,"['移动互联网', '社交', '数据分析', 'SQL']"
13,数据分析师,中创碳投,150-500人,企业服务,未融资,"['年底双薪', '带薪年假', '定期体检', '午餐补助']",产品|需求|项目类,产品经理,数据分析师,南京,栖霞区,8k-12k,14,1-3年,全职,本科,五险一金、双休、工作氛围活跃、零食下午茶,32.077561,118.905181,"['需求分析', '数据分析']"
14,数据分析师,广州银行信用卡中心,2000人以上,金融,不需要融资,"['带薪年假', '午餐补助', '发展平台', '金融']",产品|需求|项目类,数据分析,数据分析,广州,天河区,12k-20k,0,不限,全职,本科,发展前景佳,23.131477,113.331348,"['python', 'sas', '数据分析', '金融', '大数据']"
0,数据分析师,联元智能科技,50-150人,"移动互联网,数据服务",A轮,"['绩效奖金', '带薪年假', '补充公积金', '年底双薪']",产品|需求|项目类,数据分析,数据分析,上海,普陀区,15k-30k,0,3-5年,全职,本科,五险一金 绩效奖金 弹性工作 补充公积金,31.267330,121.414281,"['商业', 'BI', '数据分析']"
1,数据分析师,数美,150-500人,"企业服务,数据服务",C轮,"['年底双薪', '大数据', '带薪年假', '通讯津贴']",产品|需求|项目类,产品经理,数据分析师,北京,朝阳区,10k-20k,14,1-3年,全职,本科,风控独角兽、飞速发展、待遇给力,40.021083,116.465953,"['竞品分析', 'SaaS', '数据分析', '企业软件']"
2,数据分析师,新明珠集团,2000人以上,"电商,房产家居",未融资,[],产品|需求|项目类,数据分析,数据分析,佛山,禅城区,8k-13k,0,1-3年,全职,本科,五险一金 餐补 话费补贴,22.957851,113.014427,"['SPSS', '数据库', '数据分析']"
3,数据分析师,字节跳动,2000人以上,文娱丨内容,C轮,"['扁平管理', '弹性工作', '大厨定制三餐', '就近租房补贴']",产品|需求|项目类,数据分析,数据分析,杭州,余杭区,15k-30k,0,不限,全职,本科,"下午茶,健身瑜伽,六险一金,五险一金",30.289958,120.046052,"['产品', '数据分析']"
4,数据分析师,字节跳动,2000人以上,文娱丨内容,C轮,"['扁平管理', '弹性工作', '大厨定制三餐', '就近租房补贴']",产品|需求|项目类,数据分析,数据分析,北京,海淀区,15k-30k,0,1-3年,全职,本科,"下午茶,五险一金,团队氛围好,大牛带队",40.013248,116.352742,"['项目管理', '数据分析']"
5,数据分析师,大箴（杭州）科技有限公司,50-150人,"人工智能,企业服务",不需要融资,"['年终分红', '午餐补助', '带薪年假', '专项奖金']",产品|需求|项目类,数据分析,数据分析,杭州,拱墅区,20k-30k,15,3-5年,全职,本科,带薪年假；下午茶；团队氛围open；,30.330837,120.123016,"['商业', '数据分析', 'SQL']"
6,数据分析,上海睿民,500-2000人,"移动互联网,其他",上市公司,"['节日礼物', '带薪年假', '岗位晋升', '管理规范']",开发|测试|运维类,数据开发,数据分析,北京,顺义区,13k-18k,13,5-10年,全职,本科,六险一金；节假日福利；弹性工作；上市公司,40.162024,116.660498,"['Oracle', 'ETL', '金融', '数据挖掘', 'MySQL']"
7,数据分析师,思为软件,150-500人,企业服务,不需要融资,"['领导nice', '感恩情怀', '定期体检', '期权激励']",开发|测试|运维类,数据开发,数据分析,深圳,南山区,15k-28k,0,5-10年,全职,本科,空间大 发展好,22.524562,113.942755,"['数据架构', '数据分析']"
8,数据分析师,小帮规划,500-2000人,"移动互联网,金融",B轮,"['五险一金', '午餐补助', '交通补助', '带薪年假']",产品|需求|项目类,数据分析,数据分析,北京,朝阳区,25k-45k,14,3-5年,全职,本科,发展空间 福利待遇,39.999056,116.488885,"['数据运营', '数据分析']"
9,数据分析师,盈富斯,150-500人,电商,C轮,"['股票期权', '带薪年假', '五险一金', '弹性工作']",产品|需求|项目类,数据分析,商业,广州,番禺区,7k-12k,0,1-3年,全职,大专,"团队氛围好,福利棒,发展空间大,领导好",22.943766,113.401635,"['移动互联网', '电商', '商业', '数据分析']"
10,数据分析师,时代区块链,50-150人,"金融,移动互联网",未融资,"['节日礼物', '股票期权', '扁平管理', '领导好']",产品|需求|项目类,产品经理,数据分析师,深圳,南山区,10k-15k,0,1-3年,全职,本科,五险一金，组织旅游，节日福利,22.547741,113.945943,"['策略', '需求分析', '用户研究', '数据分析']"
11,数据分析,好未来,2000人以上,教育,上市公司,"['上市公司', '领军企业', '五险一金', '住福计划']",产品|需求|项目类,数据分析,数据分析,北京,昌平区,25k-50k,0,5-10年,全职,本科,年底双薪 带薪年假 上升空间大,40.080539,116.365021,"['SQL', '商业', 'BI', '数据分析']"
12,数据分析师,无糖信息,50-150人,"信息安全,数据服务",A轮,"['带薪年假', '五险一金', '弹性工作', '领导好']",产品|需求|项目类,产品经理,数据分析师,重庆,南岸区,5k-8k,0,1-3年,全职,大专,福利完善 地铁周边 年轻团队 扁平管理,29.519501,106.558912,['数据分析']
13,数据分析师,金山办公软件,2000人以上,移动互联网,上市公司,"['年底双薪', '节日礼物', '技能培训', '绩效奖金']",产品|需求|项目类,数据分析,数据分析,北京,海淀区,15k-25k,0,1-3年,全职,本科,"免费三餐,免费健身房",31.202542,121.603788,"['数据库', '商业', '数据分析', 'SQL']"
14,数据分析,联联科技,2000人以上,"消费生活,其他",不需要融资,[],开发|测试|运维类,数据开发,数据分析,成都,高新区,10k-20k,0,3-5年,全职,硕士,超长年假,30.546375,104.066627,"['数据分析', 'Python']"
0,数据分析师,海豚传媒,500-2000人,"文娱丨内容,其他",不需要融资,"['专项奖金', '交通补助', '通讯津贴', '带薪年假']",产品|需求|项目类,产品经理,数据分析师,北京,丰台区,8k-15k,13,1-3年,全职,本科,双休 节假日福利 培训福利 儿童教育 年假,39.855537,116.309715,"['移动互联网', '教育', '数据分析']"
1,数据分析师,糗事百科,150-500人,移动互联网,A轮,"['媲美名企高薪', '无限量零食', '五险一金', '年度旅游']",产品|需求|项目类,数据分析,增长黑客（Growth Hacking）,深圳,南山区,15k-20k,0,1-3年,全职,本科,一起来做些有意思的事儿吧,22.993680,113.993578,"['增长黑客', '社交', '分类信息', 'BI', '数据分析', 'SQL']"
2,数据分析师,字节跳动,2000人以上,文娱丨内容,C轮,"['扁平管理', '弹性工作', '大厨定制三餐', '就近租房补贴']",产品|需求|项目类,数据分析,数据分析,上海,徐汇区,15k-30k,0,1-3年,全职,本科,六险一金，弹性工作，免费三餐，餐补,31.190859,121.439140,['数据分析']
3,数据分析师,字节跳动,2000人以上,文娱丨内容,C轮,"['扁平管理', '弹性工作', '大厨定制三餐', '就近租房补贴']",产品|需求|项目类,数据分析,数据分析,福州,仓山区,6k-12k,0,1-3年,全职,本科,"六险一金,晋升空间大,扁平管理,餐补",26.061698,119.255320,['数据分析']
4,数据分析,华录超清文化,50-150人,VR丨AR,不需要融资,[],产品|需求|项目类,数据分析,数据分析,广州,越秀区,6k-8k,0,1-3年,全职,本科,交通便利，五险一金，带薪年假,23.123832,113.314819,"['数据分析', 'SQL']"
5,数据分析师,参数,15-50人,移动互联网,不需要融资,[],产品|需求|项目类,数据分析,数据分析,广州,越秀区,7k-10k,0,1-3年,全职,本科,周末双休、五险一金,23.123309,113.296581,"['云计算', '大数据', '数据运营', '数据库', '数据分析', 'BI']"
6,数据分析师,Helens,2000人以上,"消费生活,文娱丨内容",不需要融资,"['带薪年假', '消费5折', '扁平管理', '美女多']",综合职能|高级管理,财务,财务分析师,深圳,南山区,30k-50k,0,3-5年,全职,本科,免费食宿、氛围好、弹性工作、年终奖,22.486094,113.911537,"['数据分析', '财务', '上市', '分析']"
7,数据分析师,蜻蜓FM,150-500人,移动互联网,D轮及以上,"['明星直播', '男女1:1', '带薪年假', '扁平管理']",产品|需求|项目类,数据分析,数据分析,上海,浦东新区,15k-25k,0,3-5年,全职,本科,弹性工作，年轻化团队，行业领先平台,31.218106,121.531282,"['大数据', '金融', '商业', '数据分析']"
8,数据分析师,融360,500-2000人,金融,上市公司,"['股票期权', '专项奖金', '通讯津贴', '带薪年假']",产品|需求|项目类,产品经理,数据分析师,北京,海淀区,6k-10k,15,1年以下,全职,本科,六险一金、带薪年病假、周末双休、15薪,39.979691,116.312978,"['互联网金融', '数据分析']"
9,数据分析师,蜻蜓FM,150-500人,移动互联网,D轮及以上,"['明星直播', '男女1:1', '带薪年假', '扁平管理']",开发|测试|运维类,数据开发,数据分析,上海,浦东新区,12k-18k,0,1-3年,全职,本科,团队氛围好,31.218323,121.532279,"['大数据', '数据分析']"
10,数据分析,省钱快报,150-500人,"移动互联网,电商",C轮,"['技能培训', '带薪年假', '绩效奖金', '股票期权']",开发|测试|运维类,数据开发,数据分析,北京,东城区,15k-30k,0,1-3年,全职,本科,扁平管理，晋升空间大,39.951999,116.397686,"['电商', '数据分析']"
11,数据分析师,智运通,15-50人,物流丨运输,A轮,[],开发|测试|运维类,数据开发,数据分析,北京,海淀区,15k-30k,14,3-5年,全职,本科,前景好，福利待遇完善，期权,39.961117,116.323564,"['云计算', '数仓建模', '数据仓库', '数据挖掘', '算法工程师', '大数据']"
12,高级数据分析师,Shopee,500-2000人,电商,上市公司,"['外企氛围', '蓝海市场', '大牛多多', '15天年假']",开发|测试|运维类,数据开发,数据分析,上海,徐汇区,18k-35k,14,3-5年,全职,本科,专业团队、零食饮料、领导nice、福利好,31.164065,121.403990,"['移动互联网', '电商', 'MySQL']"
13,数据分析师,汇数智通,15-50人,移动互联网,A轮,"['股票期权', '年度旅游', '扁平管理', '五险一金']",产品|需求|项目类,产品经理,数据分析师,杭州,江干区,7k-14k,0,1-3年,全职,本科,半年调薪、五险一金,30.303210,120.369899,"['竞品分析', '需求分析', '数据分析']"
14,数据分析师,老虎集团,500-2000人,"移动互联网,金融",上市公司,"['绩效奖金', '年底双薪', '带薪年假', '定期体检']",开发|测试|运维类,数据开发,数据分析,北京,朝阳区,15k-25k,14,1-3年,全职,不限,优秀的团队，完善的福利待遇，弹性工作时间,39.970685,116.445958,"['金融', '数据分析']"
0,数据分析师,云码通,50-150人,"数据服务,区块链",未融资,"['年底双薪', '带薪年假', '通讯津贴', '交通补助']",产品|需求|项目类,产品经理,数据分析师,贵阳,观山湖区,10k-20k,13,3-5年,全职,本科,年底双薪，包早中餐，节日福利,26.618427,106.649094,"['云计算', '需求分析', '大数据', '数据分析']"
1,数据分析,盛业恒泰投资,50-150人,金融,未融资,[],金融类,互联网金融,分析师,北京,朝阳区,12k-15k,0,不限,全职,不限,弹性办公 周末双休 带薪年假,39.919894,116.454562,"['证券/期货', '分析师', '互联网金融', '行业研究']"
2,数据分析师,小鹅（小鹅通）,500-2000人,"移动互联网,社交",C轮,"['扁平管理', '领导nice', '专项奖金', '定期体检']",产品|需求|项目类,产品经理,数据分析师,深圳,南山区,15k-20k,15,1-3年,全职,本科,公司前景好 团队leader NICE,22.549041,113.943289,"['用户增长', '竞品分析', '电商', '用户研究', '教育', '数据分析']"
3,数据分析师,泰康保险集团,2000人以上,金融,不需要融资,"['交通补助', '午餐补助', '带薪年假', '定期体检']",产品|需求|项目类,产品经理,数据分析师,北京,昌平区,20k-40k,0,3-5年,全职,本科,通勤班车；员工食堂；福利待遇好,40.098795,116.274875,['数据分析']
4,数据分析师,京东数字科技,2000人以上,金融,上市公司,"['供应链金融', '消费金融', '众筹业务', '支付业务']",产品|需求|项目类,产品经理,数据分析师,北京,大兴区,15k-30k,0,在校/应届,实习,本科,团队和谐，有技术大牛,39.786038,116.564383,"['大数据', '数据分析']"
5,数据分析师,广东智源,50-150人,"移动互联网,企业服务",不需要融资,"['技能培训', '带薪年假', '绩效奖金', '岗位晋升']",产品|需求|项目类,数据分析,数据分析,广州,越秀区,5k-10k,0,不限,全职,本科,"年度旅游,月度活动,五险一金,绩效奖金",23.143929,113.273895,"['数据分析', 'SQL']"
6,数据分析师,瑛麒动漫,50-150人,"移动互联网,文娱丨内容",A轮,"['年底双薪', '股票期权', '专项奖金', '带薪年假']",产品|需求|项目类,数据分析,数据分析,上海,徐汇区,15k-25k,0,3-5年,全职,本科,"挑战大,丰富内容,氛围好",31.185347,121.450553,"['数据运营', '数据分析']"
7,数据分析师,字节跳动,2000人以上,文娱丨内容,C轮,"['扁平管理', '弹性工作', '大厨定制三餐', '就近租房补贴']",产品|需求|项目类,数据分析,数据分析,广州,海珠区,10k-20k,0,3-5年,全职,本科,"六险一金,弹性工作,餐补,租房补贴",23.073535,113.314909,"['运营', '数据分析']"
8,数据分析师,字节跳动,2000人以上,文娱丨内容,C轮,"['扁平管理', '弹性工作', '大厨定制三餐', '就近租房补贴']",产品|需求|项目类,数据分析,数据分析,北京,海淀区,25k-50k,0,不限,全职,本科,"六险一金,团队氛围好,带薪休假",40.013248,116.352742,['数据分析']
9,数据分析师,有咖互动,150-500人,移动互联网,B轮,"['绩效奖金', '年底双薪', '带薪年假', '弹性工时']",产品|需求|项目类,数据分析,数据分析,北京,朝阳区,10k-15k,0,1-3年,全职,本科,"五险一金,爱心早餐,商业保险",39.922368,116.432958,"['数据分析', '数据运营', 'BI', '可视化']"
10,数据分析师,鲸灵数据,50-150人,数据服务,未融资,"['年底双薪', '绩效奖金', '年终分红', '交通补助']",产品|需求|项目类,产品经理,数据分析师,北京,朝阳区,20k-25k,0,5-10年,全职,本科,弹性时间，氛围舒适,40.013024,116.469593,"['云计算', '大数据', '数据分析', '需求分析', 'BI']"
11,数据分析师,新浪网,2000人以上,文娱丨内容,上市公司,"['免费班车', '岗位晋升', '五险一金', '定期体检']",产品|需求|项目类,数据分析,数据分析,北京,海淀区,13k-25k,0,3-5年,全职,本科,"环境好,健身房,图书馆",40.041445,116.276407,['数据分析']
12,数据分析师,萨摩耶数科,150-500人,金融,C轮,"['技能培训', '年度旅游', '岗位晋升', '五险一金']",金融类,互联网金融,其他互联网金融职位,上海,浦东新区,10k-15k,14,1-3年,全职,本科,"精英团队,弹性工作,工作氛围好",31.158200,121.562577,"['金融', '数据分析']"
13,数据分析师,音娱时光,50-150人,移动互联网,B轮,"['年底双薪', '绩效奖金', '带薪年假', '免费健身']",产品|需求|项目类,产品经理,数据分析师,北京,海淀区,15k-25k,15,1-3年,全职,本科,年底双薪，五险一金，技术大牛,39.977555,116.352145,"['音乐', '直播', '数据分析', 'C端产品']"
14,数据分析师,萨摩耶数科,150-500人,金融,C轮,"['技能培训', '年度旅游', '岗位晋升', '五险一金']",产品|需求|项目类,产品经理,数据分析师,深圳,南山区,10k-15k,14,不限,全职,本科,"精英团队,弹性工作,工作氛围好",22.549041,113.943289,"['金融', '数据分析']"
0,数据分析师,音娱时光,50-150人,移动互联网,B轮,"['年底双薪', '绩效奖金', '带薪年假', '免费健身']",产品|需求|项目类,产品经理,数据分析师,北京,海淀区,15k-25k,15,1-3年,全职,本科,年底双薪，五险一金，技术大牛,39.977555,116.352145,"['音乐', '直播', '数据分析', 'C端产品']"
1,数据分析师,萨摩耶数科,150-500人,金融,C轮,"['技能培训', '年度旅游', '岗位晋升', '五险一金']",产品|需求|项目类,产品经理,数据分析师,深圳,南山区,10k-15k,14,不限,全职,本科,"精英团队,弹性工作,工作氛围好",22.549041,113.943289,"['金融', '数据分析']"
2,数据分析师,泉后优品,500-2000人,电商,不需要融资,"['管理规范', '年终奖', '弹性工作', '年度旅游']",产品|需求|项目类,数据分析,数据分析,广州,白云区,10k-15k,0,3-5年,全职,本科,牛人带领，快速成长,23.219348,113.306237,"['数据分析', 'BI', 'SQL']"
3,数据分析师,算话智能科技有限公司,50-150人,"数据服务,移动互联网",B轮,"['股票期权', '交通补助', '绩效奖金', '优秀团队']",产品|需求|项目类,数据分析,数据分析,上海,青浦区,12k-16k,0,1-3年,全职,本科,"绩效奖金,福利津贴,交通补贴,假日福利",31.189954,121.297302,"['大数据', '移动互联网', '数据分析', 'SQL']"
4,数据分析师,音智达,500-2000人,"数据服务,其他",未融资,"['优秀团队', '技能培训', '带薪年假', '岗位晋升']",产品|需求|项目类,数据分析,数据分析,上海,长宁区,10k-15k,0,1-3年,全职,本科,弹性工作制、五险一金、年假多,31.219261,121.425311,"['数据库', '数据分析', 'SQL']"
5,数据分析师,爱奇艺,2000人以上,文娱丨内容,上市公司,"['绩效奖金', '五险一金', '交通补助', '带薪年假']",产品|需求|项目类,产品经理,数据分析师,北京,海淀区,20k-30k,0,3-5年,全职,本科,核心业务,39.983752,116.313228,['数据分析']
6,高级数据分析师,Shopee,500-2000人,电商,上市公司,"['外企氛围', '蓝海市场', '大牛多多', '15天年假']",开发|测试|运维类,数据开发,数据分析,上海,徐汇区,18k-35k,14,3-5年,全职,本科,专业团队、零食饮料、领导nice、福利好,31.164065,121.403990,"['移动互联网', '电商', 'MySQL']"
7,数据分析师,有车以后,150-500人,移动互联网,C轮,"['股票期权', '带薪年假', '弹性工作', '五险一金']",产品|需求|项目类,数据分析,数据分析,广州,海珠区,12k-18k,0,3-5年,全职,本科,"周末双休,导师制度，腾讯投资",23.092899,113.291230,"['数据库', '数据分析', 'SQL']"
8,数据分析师,樊登读书,150-500人,"移动互联网,教育",A轮,"['节日礼物', '股票期权', '带薪年假', '绩效奖金']",产品|需求|项目类,产品经理,数据分析师,上海,长宁区,10k-20k,0,3-5年,全职,本科,福利待遇 晋升途径,31.206768,121.407040,['数据分析']
9,数据分析师,唱吧-玩音乐，就上唱吧！,150-500人,"移动互联网,游戏",D轮及以上,"['节日礼物', '股票期权', '带薪年假', '员工海外游']",开发|测试|运维类,数据开发,数据分析,北京,朝阳区,20k-40k,15,3-5年,全职,本科,海量数据 成长快 七险一金,39.995197,116.466485,"['业务分析', '数据埋点', 'BI', '数据分析']"
10,数据分析师,换换优品,50-150人,"移动互联网,电商",不需要融资,"['带薪年假', '专项奖金', '晋升空间大', '发展舞台广']",开发|测试|运维类,高端技术职位,其他高端技术职位,深圳,南山区,10k-20k,0,3-5年,全职,本科,发展前景,22.532157,113.951781,"['移动互联网', '电商', '数据分析']"
11,数据分析专家（外包结算与成本管控）,美团,2000人以上,消费生活,上市公司,"['技能培训', '绩效奖金', '岗位晋升', '领导好']",运营|编辑|客服类,运营,其他运营,北京,朝阳区,15k-25k,0,1-3年,全职,本科,超大平台,40.008142,116.486622,"['数据', '数据分析']"
12,数据分析师,知网,2000人以上,"移动互联网,电商",上市公司,"['美女多多', '带薪年假', '绩效奖金', '岗位晋升']",产品|需求|项目类,产品经理,数据分析师,贵阳,南明区,5k-6k,13,不限,全职,硕士,节假日双休，购买五险二金、享受项目奖金,26.570062,106.688760,"['结构设计', '数据分析']"
13,数据分析师,盈众控股集团,2000人以上,"汽车丨出行,消费生活",不需要融资,[],产品|需求|项目类,产品经理,数据分析师,厦门,海沧区,6k-10k,0,3-5年,全职,大专,六险二金、带薪年假、节日福利、优惠购车,24.489221,117.984639,"['产品策划', '数据分析']"
14,数据分析师,字节跳动,2000人以上,文娱丨内容,C轮,"['扁平管理', '弹性工作', '大厨定制三餐', '就近租房补贴']",开发|测试|运维类,数据开发,其他数据开发,成都,高新区,25k-50k,0,不限,全职,本科,六险一金，免费三餐，带薪休假，职业大牛,30.543565,104.064492,"['hadoop', '数据分析']"
0,数据分析师,字节跳动,2000人以上,文娱丨内容,C轮,"['扁平管理', '弹性工作', '大厨定制三餐', '就近租房补贴']",开发|测试|运维类,数据开发,其他数据开发,成都,高新区,25k-50k,0,不限,全职,本科,六险一金，免费三餐，带薪休假，职业大牛,30.543565,104.064492,"['hadoop', '数据分析']"
1,数据分析师,字节跳动,2000人以上,文娱丨内容,C轮,"['扁平管理', '弹性工作', '大厨定制三餐', '就近租房补贴']",产品|需求|项目类,数据分析,数据分析,北京,海淀区,30k-60k,0,不限,全职,本科,"下午茶,健身瑜伽,六险一金,股票期权",39.979578,116.369044,['数据分析']
2,数据分析师,嘉谊互娱,50-150人,游戏,未融资,"['五险一金', '定期体检', '带薪年假', '弹性工作']",产品|需求|项目类,产品经理,数据分析师,成都,武侯区,4k-8k,0,1-3年,全职,本科,五险一金、商业保险、周末双休、旅游机会,30.546486,104.044523,"['数据建模', 'SQL', '数据分析', '数据处理']"
3,数据分析师,云启星辰,15-50人,移动互联网,B轮,"['五险一金', '腾讯系', '期权激励', '开放式办公']",产品|需求|项目类,数据分析,数据分析,深圳,南山区,14k-20k,0,3-5年,全职,本科,腾讯系，A轮千万融资，丰厚的期权激励,22.522776,113.936407,"['商业分析', '增长黑客', '数据运营', '新零售', '数据分析']"
4,数据分析师,嗨学网,2000人以上,教育,D轮及以上,"['技能培训', '节日礼物', '带薪年假', '绩效奖金']",开发|测试|运维类,数据开发,数据分析,成都,成华区,9k-15k,0,1-3年,全职,本科,对接核心业务；平台大；领导牛,30.670286,104.094655,"['数据分析', 'Python']"
5,数据分析师,Convert lab,50-150人,企业服务,B轮,"['股票期权', '巨大市场空间', '行业经验丰富', '定期体检']",开发|测试|运维类,数据开发,数据分析,上海,徐汇区,15k-30k,14,3-5年,全职,本科,佛系不鸡血，提供午餐晚餐，无996，007，大小周,31.196247,121.432486,"['算法', '算法工程师', '数据分析', '数据挖掘']"
6,数据分析师,莉莉丝游戏,500-2000人,"移动互联网,游戏",不需要融资,"['项目奖金', '零食无限量', '牛逼的同事', '境外旅游']",开发|测试|运维类,数据开发,数据分析,上海,闵行区,18k-30k,16,3-5年,全职,本科,核心团队 大平台 领导好 发挥空间大,31.170277,121.392259,"['游戏', 'Python', 'SQLServer', 'MySQL']"
7,数据分析师,深圳市沃客非凡科技有限公司,50-150人,"电商,移动互联网",B轮,"['年底双薪', '绩效奖金', '午餐补助', '定期体检']",产品|需求|项目类,数据分析,数据分析,深圳,福田区,10k-20k,0,3-5年,全职,本科,发展前景好,22.544035,114.089586,"['移动互联网', '电商', '数据分析']"
8,数据分析师,大宇宙,500-2000人,"电商,消费生活",未融资,"['五险一金', '带薪年假', '绩效奖金', '节日礼物']",产品|需求|项目类,数据分析,数据分析,上海,静安区,10k-12k,0,1-3年,全职,本科,公司规模大、办公环境佳、平台发展好,31.225309,121.457579,"['数据库', '可视化', '电商', 'BI', 'SQL']"
9,数据分析师,贝壳,2000人以上,房产家居,上市公司,"['股票期权', '带薪年假', '绩效奖金', '扁平管理']",产品|需求|项目类,产品经理,数据分析师,北京,海淀区,20k-40k,16,3-5年,全职,本科,免费三餐 发展空间,40.040145,116.305559,['数据分析']
10,数据分析师,数美,150-500人,"企业服务,数据服务",C轮,"['年底双薪', '大数据', '带薪年假', '通讯津贴']",产品|需求|项目类,产品经理,数据分析师,北京,朝阳区,8k-15k,14,在校/应届,实习,本科,风控独角兽、飞速发展、待遇给力,40.021083,116.465953,"['云计算', '内容产品', 'BI', 'SaaS', '大数据']"
11,数据分析师,微博,2000人以上,文娱丨内容,上市公司,"['年底双薪', '专项奖金', '股票期权', '五险一金']",产品|需求|项目类,数据分析,数据分析,杭州,拱墅区,10k-19k,0,在校/应届,全职,本科,大厂平台 扁平团队,30.335525,120.119823,['数据分析']
12,数据分析师,星石悦文,50-150人,金融,未融资,[],金融类,证券|基金|信托|期货,其他证券|基金|信托|期货,成都,锦江区,10k-20k,0,不限,全职,不限,团队聚餐 节日礼物,30.647160,104.091140,"['量化分析', '行业研究', '金融', '数据分析']"
13,数据分析师,京东数字科技,2000人以上,金融,上市公司,"['供应链金融', '消费金融', '众筹业务', '支付业务']",产品|需求|项目类,产品经理,数据分析师,北京,大兴区,15k-30k,0,3-5年,全职,本科,即将上市，潜力大,39.786038,116.564383,['数据分析']
14,数据分析师,字节跳动,2000人以上,文娱丨内容,C轮,"['扁平管理', '弹性工作', '大厨定制三餐', '就近租房补贴']",产品|需求|项目类,数据分析,数据分析,成都,武侯区,8k-16k,0,3-5年,全职,本科,"六险一金,团队氛围好,带薪休假,餐补",30.581175,104.047534,"['运营', '数据分析']"
0,数据分析师,京东数字科技,2000人以上,金融,上市公司,"['供应链金融', '消费金融', '众筹业务', '支付业务']",产品|需求|项目类,产品经理,数据分析师,北京,大兴区,15k-30k,0,3-5年,全职,本科,即将上市，潜力大,39.786038,116.564383,['数据分析']
1,数据分析师,卡车之家,150-500人,移动互联网,上市公司,"['节日礼物', '技能培训', '带薪年假', '岗位晋升']",产品|需求|项目类,产品经理,数据分析师,北京,朝阳区,10k-16k,13,1-3年,全职,本科,年终奖，福利假期，带薪年假，上市公司,39.910210,116.538660,"['python', '物流', 'sql', '数据', '移动互联网']"
2,数据分析,比心陪练,500-2000人,社交,B轮,"['带薪年假', '年度旅游', '岗位晋升', '六险一金']",开发|测试|运维类,数据开发,数据分析,上海,徐汇区,20k-40k,14,3-5年,全职,本科,六险一金、带薪年假、免费饮料、一群逗逼同事,31.165362,121.399448,"['数仓建模', '数据仓库', '数仓架构', '数据挖掘', '数据分析']"
3,数据分析师,上海浩宜信息科技有限公司,150-500人,"数据服务,人工智能",不需要融资,"['绩效奖金', '定期体检', '股票期权', '通讯津贴']",产品|需求|项目类,数据分析,数据分析,广州,天河区,6k-12k,0,1-3年,全职,本科,做五休二，季度绩效、五险一金、定期团建,23.118979,113.350663,"['数据运营', '数据分析']"
4,数据分析师,小红书,500-2000人,消费生活,D轮及以上,"['年度旅游', '节日礼物', '专项奖金', '带薪年假']",产品|需求|项目类,数据分析,数据分析,北京,朝阳区,25k-50k,0,1-3年,全职,本科,良好的发展前景,39.948574,116.601144,"['电商', '数据分析']"
5,数据分析师,乐易网络,150-500人,"移动互联网,游戏",不需要融资,"['技术大牛', '两次年度旅游', '福利倍儿好', '年终奖丰厚']",产品|需求|项目类,数据分析,数据分析,深圳,南山区,8k-15k,15,1-3年,全职,本科,"五险一金,高配团队,年终奖,带薪旅行",22.544901,113.946915,"['数据库', '游戏', '商业', '数据分析', 'SQL']"
6,数据分析师,尚德机构,2000人以上,教育,上市公司,"['绩效奖金', '专项奖金', '五险一金', '带薪年假']",开发|测试|运维类,数据开发,数据分析,北京,朝阳区,14k-20k,0,1-3年,全职,本科,向上空间 优秀团队,40.019962,116.469157,"['PowerBI', '数据分析']"
7,数据分析师,得物App,500-2000人,"移动互联网,电商",B轮,"['绩效奖金', '带薪年假', '定期体检', '节日礼物']",开发|测试|运维类,数据开发,数据分析,上海,杨浦区,25k-50k,16,5-10年,全职,不限,独角兽、福利待遇优、高成长、年轻团队化,31.272333,121.530215,"['数据仓库', '电商']"
8,数据分析师,如祺出行,150-500人,汽车丨出行,未融资,"['带薪年假', '午餐补助', '通讯津贴', '定期体检']",产品|需求|项目类,数据分析,数据分析,广州,海珠区,15k-25k,0,3-5年,全职,本科,管理扁平化，团队氛围好，职业发展快,23.106371,113.335173,"['数据分析', 'BI', '移动互联网', '大数据', 'SQL']"
9,数据分析师,完美世界,2000人以上,"移动互联网,游戏",上市公司,"['绩效奖金', '五险一金', '带薪年假', '年度旅游']",开发|测试|运维类,数据开发,数据分析,北京,朝阳区,20k-40k,0,1-3年,全职,本科,六险一金、餐补,40.003347,116.423242,"['移动互联网', '数据分析', '社交']"
10,数据分析师,DataHunter,50-150人,"数据服务,企业服务",A轮,"['年底双薪', '交通补助', '带薪年假', '帅哥多']",产品|需求|项目类,产品经理,数据分析师,北京,海淀区,15k-25k,13,5-10年,全职,本科,五险一金、带薪年假、期权,39.987243,116.334661,"['大数据', '数据分析']"
11,数据分析,阿卡索外教网,2000人以上,"教育,移动互联网",C轮,"['带薪年假', '弹性工作', '美女多', '领导好']",产品|需求|项目类,数据分析,数据分析,深圳,罗湖区,15k-20k,0,1-3年,全职,大专,"五险一金,员工旅游,健身俱乐部,带薪年假",22.558503,114.106928,"['移动互联网', '教育', '数据分析']"
12,数据分析师,字节跳动,2000人以上,文娱丨内容,C轮,"['扁平管理', '弹性工作', '大厨定制三餐', '就近租房补贴']",产品|需求|项目类,数据分析,数据分析,成都,武侯区,8k-16k,0,3-5年,全职,本科,"六险一金,团队氛围好,带薪休假,餐补",30.581175,104.047534,"['运营', '数据分析']"
13,数据分析师,字节跳动,2000人以上,文娱丨内容,C轮,"['扁平管理', '弹性工作', '大厨定制三餐', '就近租房补贴']",产品|需求|项目类,数据分析,数据分析,北京,朝阳区,15k-25k,0,3-5年,全职,本科,"六险一金,餐补,租房补贴,扁平管理",39.910662,116.585137,['数据分析']
14,数据分析师,杭州布谷科技有限责任公司,15-50人,"移动互联网,数据服务",B轮,[],产品|需求|项目类,产品经理,数据分析师,杭州,余杭区,12k-24k,0,1-3年,全职,本科,发展前景、福利待遇、弹性时间,30.281375,120.003524,"['大数据', '竞品分析', '需求分析', '用户研究', '教育', '数据分析']"
0,数据分析师,字节跳动,2000人以上,文娱丨内容,C轮,"['扁平管理', '弹性工作', '大厨定制三餐', '就近租房补贴']",产品|需求|项目类,数据分析,数据分析,深圳,宝安区,15k-30k,0,1-3年,全职,本科,六险一金，弹性工作，免费三餐，餐补,22.548721,113.888021,['数据分析']
1,数据分析师,杭州布谷科技有限责任公司,15-50人,"移动互联网,数据服务",B轮,[],产品|需求|项目类,产品经理,数据分析师,杭州,余杭区,12k-24k,0,1-3年,全职,本科,发展前景、福利待遇、弹性时间,30.281375,120.003524,"['大数据', '竞品分析', '需求分析', '用户研究', '教育', '数据分析']"
2,数据分析师,网营科技,150-500人,电商,不需要融资,"['五险一金', '周末双休', '氛围超嗨', '节日礼物']",产品|需求|项目类,数据分析,数据分析,杭州,西湖区,10k-15k,0,1-3年,全职,本科,"周末双休,五险一金,活动丰富,氛围超嗨",30.291030,120.068592,"['电商', '数据运营', '数据分析']"
3,数据分析师,广发银行信用卡中心,2000人以上,金融,不需要融资,"['管理规范', '平台大机遇好', '金融科技', '绩效奖金']",产品|需求|项目类,产品经理,数据分析师,广州,天河区,8k-15k,13,不限,全职,本科,双休；完善的职业发展体系；广阔的发展前景,23.119929,113.323343,['数据分析']
4,数据分析师,爱问科技,150-500人,"移动互联网,社交",不需要融资,"['五险一金', '午餐补助', '绩效奖金', '年终奖金']",产品|需求|项目类,产品经理,数据分析师,深圳,南山区,8k-15k,0,3-5年,全职,本科,五险一金 带薪年假 年终奖金 餐饮补贴,22.539456,113.954518,"['python', 'sql', '数据分析']"
5,数据分析师,本木医疗,50-150人,"移动互联网,消费生活",不需要融资,"['股票期权', '专项奖金', '绩效奖金', '午餐补助']",开发|测试|运维类,数据开发,数据分析,北京,朝阳区,15k-30k,0,5-10年,全职,本科,数据产品,39.919553,116.449843,"['大数据', 'Hive', 'SQLServer', '数据分析']"
6,数据分析师,NEXA,50-150人,"移动互联网,游戏",不需要融资,"['节日礼物', '技能培训', '绩效奖金', '岗位晋升']",产品|需求|项目类,数据分析,数据分析,成都,锦江区,12k-20k,0,3-5年,全职,本科,五险一金 带薪年假 周末双休 节假日福利,30.650513,104.084896,"['数据分析', '商业', 'BI', 'SQL']"
7,数据分析师,泰康在线,500-2000人,"移动互联网,金融",不需要融资,"['绩效奖金', '带薪年假', '交通补助', '通讯津贴']",产品|需求|项目类,产品经理,数据分析师,北京,昌平区,20k-25k,0,5-10年,全职,本科,500强企业 晋升空间大 扁平化,40.097801,116.272152,"['保险', '电商', '数据分析']"
8,数据分析师,汇数智通,15-50人,移动互联网,A轮,"['股票期权', '年度旅游', '扁平管理', '五险一金']",产品|需求|项目类,产品经理,数据分析师,杭州,江干区,3k-6k,0,在校/应届,全职,本科,半年调薪,30.303210,120.369899,"['竞品分析', '需求分析', '数据分析']"
9,数据分析师,一面数据,50-150人,"移动互联网,数据服务",不需要融资,"['海归精英团队', '年度旅游', '定期体检', '年终分红']",产品|需求|项目类,数据分析,数据分析,深圳,南山区,3k-6k,0,在校/应届,实习,本科,大数据人工智能；名校系大牛；技术氛围浓,22.537843,113.944830,"['大数据', '数据分析']"
10,数据分析师,新娱加传媒,150-500人,文娱丨内容,C轮,"['带薪年假', '绩效奖金', '领导好', '美女多']",产品|需求|项目类,数据分析,数据分析,广州,黄埔区,10k-15k,0,不限,全职,本科,弹性工作、周末双休、工作氛围,23.099310,113.450281,"['数据库', '数据分析']"
11,数据分析师,上海唯都,150-500人,广告营销,未融资,[],产品|需求|项目类,数据分析,数据分析,北京,朝阳区,10k-12k,0,3-5年,全职,本科,汽车行业 精准营销咨询 CRM专业团队,39.955710,116.459360,"['数据运营', '可视化', '汽车', '数据分析', 'SQL']"
12,数据分析师,联合飞创,50-150人,企业服务,未融资,[],开发|测试|运维类,数据开发,数据分析,重庆,渝北区,10k-14k,0,3-5年,全职,本科,发展平台、团队氛围,29.610123,106.517270,"['Python', '数仓建模', '数据仓库', '金融', '大数据', 'MySQL']"
13,数据分析师,字节跳动,2000人以上,文娱丨内容,C轮,"['扁平管理', '弹性工作', '大厨定制三餐', '就近租房补贴']",产品|需求|项目类,数据分析,数据分析,北京,海淀区,25k-50k,0,不限,全职,本科,"下午茶,健身瑜伽,六险一金,股票期权",40.013248,116.352742,['数据分析']
14,数据分析师,字节跳动,2000人以上,文娱丨内容,C轮,"['扁平管理', '弹性工作', '大厨定制三餐', '就近租房补贴']",产品|需求|项目类,数据分析,数据分析,北京,海淀区,25k-50k,0,不限,全职,本科,晋升空间,39.979578,116.369044,['数据分析']
0,数据分析师,联合飞创,50-150人,企业服务,未融资,[],开发|测试|运维类,数据开发,数据分析,重庆,渝北区,10k-14k,0,3-5年,全职,本科,发展平台、团队氛围,29.610123,106.517270,"['Python', '数仓建模', '数据仓库', '金融', '大数据', 'MySQL']"
1,数据分析师,达达集团,2000人以上,消费生活,上市公司,"['弹性工作', '股票期权', '扁平管理', '技术氛围浓厚']",产品|需求|项目类,数据分析,数据分析,上海,浦东新区,15k-25k,0,3-5年,全职,本科,技术驱动、风口平台,31.229046,121.515042,"['SPSS', '大数据', '数据分析']"
2,数据分析师,智品网络,150-500人,"移动互联网,电商",A轮,"['五险一金', '健身器材', '扁平管理', '产品为主']",产品|需求|项目类,数据分析,数据分析,广州,天河区,18k-25k,0,3-5年,全职,本科,"工程师氛围,技术大牛,周末双休",23.117200,113.369895,"['数据运营', '商业', '数据分析']"
3,数据分析师,掌门集团,500-2000人,"移动互联网,消费生活",B轮,"['年度旅游', '绩效奖金', '带薪年假', '弹性工作']",开发|测试|运维类,数据开发,数据分析,上海,浦东新区,20k-35k,0,5-10年,全职,本科,"大数据平台,千万级用户,工作氛围好,奖金丰厚",31.221517,121.544379,"['数据库开发', '数据分析']"
4,数据分析师,佰聆数据,150-500人,"数据服务,软件开发",不需要融资,[],产品|需求|项目类,数据分析,数据分析,重庆,江北区,6k-12k,13,1-3年,全职,本科,周末双休，大数据行业，档案挂靠，可转正,29.586453,106.558284,['数据分析']
5,数据分析师,佰聆数据,150-500人,"数据服务,软件开发",不需要融资,[],产品|需求|项目类,产品经理,数据分析师,广州,越秀区,7k-10k,13,1-3年,全职,本科,五险一金、周末双休、年终奖、餐补、通讯补贴,23.131719,113.306881,"['人工智能', '大数据', '数据分析']"
6,数据分析师,映客直播,150-500人,"移动互联网,文娱丨内容",上市公司,"['绩效奖金', '带薪年假', '午餐补助', '专项奖金']",产品|需求|项目类,数据分析,数据分析,广州,海珠区,10k-18k,0,1-3年,全职,本科,氛围好 五险一金 下午茶 双休,23.105685,113.321230,"['数据库', '数据运营', '直播', '移动互联网', '数据分析']"
7,数据分析师,东莞美宜佳,500-2000人,其他,不需要融资,"['带薪年假', '提供住宿', '员工餐厅', '专项奖金']",开发|测试|运维类,数据开发,数据分析,东莞,东莞市市辖区,6k-10k,0,1-3年,全职,大专,"SQL,数据库",23.024888,113.745011,"['大数据', '数据分析', '数据挖掘']"
8,数据分析,玩吧,500-2000人,社交,B轮,"['去他的考勤', '高手云集', '股票期权', '年底N薪']",开发|测试|运维类,数据开发,数据分析,北京,东城区,10k-18k,0,1-3年,全职,本科,"七险一金,弹性不打卡,免费午餐,季度旅游",39.940498,116.436939,"['移动互联网', '数据分析', '社交']"
9,数据分析师,东莞美宜佳,500-2000人,其他,不需要融资,"['带薪年假', '提供住宿', '员工餐厅', '专项奖金']",产品|需求|项目类,产品经理,数据分析师,广州,天河区,6k-10k,0,1-3年,全职,大专,福利待遇好，带薪年假,23.125401,113.401953,"['数据分析', 'SQL']"
10,数据分析师,联通大数据,150-500人,数据服务,不需要融资,[],产品|需求|项目类,数据分析,数据分析,北京,东城区,15k-20k,0,3-5年,全职,不限,五险一金 各种福利补贴,39.952516,116.419344,"['DBA', 'SPSS', '数据运营', '数据分析']"
11,数据分析师,华云中盛,500-2000人,"数据服务,移动互联网",不需要融资,"['绩效奖金', '带薪年假', '通讯津贴', '定期体检']",产品|需求|项目类,产品经理,数据分析师,深圳,南山区,14k-20k,0,3-5年,全职,本科,带薪年假，定期体检，技术大牛。,22.545362,113.937732,"['python', 'sql', '数据分析']"
12,数据分析师,永安在线,150-500人,信息安全,B轮,"['带薪年假', '股票期权', '绩效奖金', '扁平管理']",产品|需求|项目类,产品经理,数据分析师,深圳,南山区,15k-25k,0,1-3年,全职,本科,丰厚奖金、年度调薪、免费健身、年度体检,22.545669,113.946011,"['数据开发', '数据分析', '数据挖掘']"
13,数据分析师,中佳兴证,15-50人,数据服务,未融资,[],金融类,证券|基金|信托|期货,证券分析师,成都,锦江区,9k-10k,0,1-3年,全职,本科,节假日周末双休，不加班，不加班,30.659006,104.070326,"['证券/期货', '股票', '期货', '证券', '外汇', '投资/融资']"
14,数据分析师,数位科技,150-500人,企业服务,B轮,"['大数据弄潮儿', '大牛云集', '高并发', '14薪起']",产品|需求|项目类,数据分析,数据分析,深圳,南山区,18k-35k,0,3-5年,全职,本科,大牛团队 办公环境好,22.516477,113.945196,"['商业', '数据分析']"
0,数据分析师,闪送,500-2000人,移动互联网,D轮及以上,"['股票期权', '岗位晋升', '五险一金', '高速成长']",产品|需求|项目类,数据分析,数据分析,北京,海淀区,15k-25k,15,1-3年,全职,本科,互联网平台 发展前景,40.043285,116.305849,"['用户分析', '数据分析']"
1,数据分析,完美世界,2000人以上,"移动互联网,游戏",上市公司,"['绩效奖金', '五险一金', '带薪年假', '年度旅游']",产品|需求|项目类,数据分析,数据分析,北京,朝阳区,15k-20k,0,不限,全职,本科,六险一金；免费健身房；周末双休；公司食堂；,40.003347,116.423242,"['Excel', 'Tableau', '大数据', 'SQL']"
2,数据分析师,土豆雅思,150-500人,教育,A轮,"['午餐补助', '带薪年假', '绩效奖金', '节日礼物']",产品|需求|项目类,数据分析,数据分析,北京,朝阳区,12k-20k,0,1-3年,全职,本科,"平台好,领导好,扁平化,福利好",40.021082,116.465953,['数据分析']
3,数据分析,讯汇科技,150-500人,"移动互联网,社交",不需要融资,"['节日礼物', '技能培训', '绩效奖金', '年度旅游']",开发|测试|运维类,数据开发,数据分析,广州,天河区,7k-12k,0,3-5年,全职,本科,五险一金 周末双休 年终奖金 扁平管理,23.120030,113.327728,"['数据架构', '数据分析']"
4,数据分析师,北京中经惠众科技有限公司,150-500人,"金融,企业服务",不需要融资,[],产品|需求|项目类,产品经理,数据分析师,成都,武侯区,20k-25k,0,5-10年,全职,本科,大数据平台 晋升空间 扁平管理 五险一金,30.581234,104.063214,"['数据', '大数据', '数据分析']"
5,数据分析师,花生日记,150-500人,"电商,消费生活",B轮,[],产品|需求|项目类,数据分析,数据分析,广州,海珠区,10k-15k,0,3-5年,全职,本科,"大数据平台,千万级用户,精英团队,知识分",23.101343,113.384824,"['社交', '数据分析', '电商', 'SPSS', 'BI', 'SQL']"
6,数据分析师,字节跳动,2000人以上,文娱丨内容,C轮,"['扁平管理', '弹性工作', '大厨定制三餐', '就近租房补贴']",运营/编辑/客服,运营,内容,西安,莲湖区,4k-7k,0,1-3年,全职,本科,六险一金，弹性工作，餐补，租房补贴，带薪休假，休闲下午茶，扁平管理，团队氛围好,34.267258,108.946404,['数据分析']
7,数据分析,字节跳动,2000人以上,文娱丨内容,C轮,"['扁平管理', '弹性工作', '大厨定制三餐', '就近租房补贴']",产品|需求|项目类,数据分析,数据分析,太原,小店区,7k-14k,0,3-5年,全职,本科,"六险一金,团队氛围好,晋升空间大",37.796590,112.545526,"['运营', '数据分析']"
8,数据分析师,纵游互娱,50-150人,游戏,未融资,[],产品|需求|项目类,产品经理,数据分析师,广州,天河区,8k-13k,13,1-3年,全职,大专,晋升空间大，年轻团队,23.125239,113.377014,"['竞品分析', '需求分析', '数据分析']"
9,数据分析,最右,500-2000人,文娱丨内容,D轮及以上,"['技能培训', '连续创业团队', '年度旅游', '扁平管理']",开发|测试|运维类,数据开发,数据分析,北京,海淀区,15k-30k,0,1-3年,全职,本科,"高薪高股,六险一金,提供三餐,房补",39.980092,116.368056,"['大数据', '数据分析', '数据挖掘']"
10,数据分析师,有品 PICOOC,50-150人,移动互联网,C轮,"['股票期权', '绩效奖金', '带薪年假', '扁平管理']",开发|测试|运维类,数据开发,数据分析,深圳,南山区,10k-20k,0,3-5年,全职,本科,双休 大牛多,22.491697,113.915440,"['智能硬件', '电商', '数据分析']"
11,数据分析师,火币网,2000人以上,金融,不需要融资,"['红杉资本', '实现跨境支付', '优秀指导人', '自由货币']",产品|需求|项目类,产品经理,数据分析师,深圳,南山区,10k-20k,13,不限,全职,本科,餐补 交通补贴 五险一金 商业保险,22.542797,113.951610,"['金融', '数据分析']"
12,数据分析师,闪送,500-2000人,移动互联网,D轮及以上,"['股票期权', '岗位晋升', '五险一金', '高速成长']",产品|需求|项目类,产品经理,数据分析师,北京,海淀区,18k-25k,15,3-5年,全职,本科,工作氛围好 发挥空间大 带薪年假,40.043285,116.305849,"['tableau', '数据支持', '数据分析', 'SQL']"
13,数据分析师,知网,2000人以上,"移动互联网,电商",上市公司,"['美女多多', '带薪年假', '绩效奖金', '岗位晋升']",产品|需求|项目类,数据分析,数据分析,北京,海淀区,7k-11k,0,在校/应届,全职,硕士,"期刊评价,大数据分析,咨询服务,待遇从优",40.048024,116.355789,"['大数据', '数据分析', '新闻|出版']"
14,数据分析师,开思时代,500-2000人,"电商,汽车丨出行",C轮,[],产品|需求|项目类,产品经理,数据分析师,深圳,龙岗区,10k-20k,13,3-5年,全职,本科,福利多 晋升空间大,22.630206,114.068214,['数据分析']
0,数据分析师,开思时代,500-2000人,"电商,汽车丨出行",C轮,[],产品|需求|项目类,产品经理,数据分析师,深圳,龙岗区,10k-20k,13,3-5年,全职,本科,福利多 晋升空间大,22.630206,114.068214,['数据分析']
1,数据分析师,微财数科,500-2000人,金融,未融资,"['五险一金', '交通补助', '带薪年假', '定期体检']",产品|需求|项目类,产品经理,数据分析师,北京,昌平区,15k-25k,14,3-5年,全职,本科,"团队氛围好,发展潜力大",40.207746,116.286250,['数据分析']
2,数据分析师,VHS 好人生,50-150人,医疗丨健康,C轮,"['节日礼物', '技能培训', '绩效奖金', '年度旅游']",开发|测试|运维类,数据开发,数据分析,上海,长宁区,10k-15k,0,1-3年,全职,硕士,"六险一金,周末双休,EAP服务",31.217560,121.417920,"['医疗健康', '大数据', '数据分析']"
3,数据分析师,VHS 好人生,50-150人,医疗丨健康,C轮,"['节日礼物', '技能培训', '绩效奖金', '年度旅游']",开发|测试|运维类,数据开发,数据分析,上海,长宁区,15k-30k,0,1年以下,全职,硕士,朝阳行业，核心岗位,31.217560,121.417920,"['医疗健康', '大数据', '数据分析']"
4,数据分析师,信永中和,2000人以上,企业服务,不需要融资,"['带薪年假', '定期体检', '美女多', '扁平管理']",产品|需求|项目类,数据分析,数据分析,北京,东城区,10k-15k,0,1-3年,全职,本科,"环境好,不加班,大公司",39.930762,116.435465,"['企业服务', '大数据', 'BI', '可视化']"
5,数据分析,北银消费,150-500人,金融,不需要融资,"['节日礼物', '技能培训', '绩效奖金', '岗位晋升']",开发|测试|运维类,数据开发,数据分析,北京,海淀区,15k-20k,14,1-3年,全职,本科,公司平台稳定 发展潜力巨大,39.981363,116.317222,"['算法工程师', '互联网金融', '消费金融', '数据挖掘']"
6,数据分析师,FOTILE方太,2000人以上,"移动互联网,电商",不需要融资,"['节日礼物', '培训发展', '年度旅游', '岗位晋升']",产品|需求|项目类,产品经理,数据分析师,宁波,慈溪市,10k-20k,0,5-10年,全职,本科,IT 信息技术 包住,30.314539,121.316810,"['新零售', '数据分析', 'B端产品']"
7,数据分析,火币网,2000人以上,金融,不需要融资,"['红杉资本', '实现跨境支付', '优秀指导人', '自由货币']",产品|需求|项目类,数据分析,数据分析,北京,海淀区,30k-40k,13,3-5年,全职,本科,行业大牛，完善的福利，晋升空间,40.049953,116.284706,['数据分析']
8,数据分析师,汇信科技,150-500人,"移动互联网,电商",未融资,"['节日礼物', '带薪年假', '岗位晋升', '美女多']",产品|需求|项目类,数据分析,数据分析,杭州,拱墅区,15k-20k,0,3-5年,全职,本科,自主的工作，一流的福利,30.275352,120.154433,"['大数据', '数据分析', '企业服务']"
9,数据分析师,绝味食品,2000人以上,"电商,广告营销",上市公司,[],产品|需求|项目类,产品经理,数据分析师,长沙,芙蓉区,7k-12k,0,3-5年,全职,本科,五险一金，双休，培训,28.209023,113.018920,"['新零售', '数据分析']"
10,数据分析师,幸福消费金融,150-500人,"移动互联网,金融",不需要融资,"['交通补助', '通讯津贴', '午餐补助', '绩效奖金']",开发|测试|运维类,数据开发,数据分析,北京,朝阳区,23k-35k,0,5-10年,全职,本科,待遇好，有发展,39.896710,116.460635,"['银行', '互联网金融', '数据分析', '数据处理']"
11,数据分析师,联邦车网,150-500人,"移动互联网,消费生活",不需要融资,"['年底双薪', '绩效奖金', '带薪年假', '定期体检']",产品|需求|项目类,产品经理,数据分析师,广州,海珠区,8k-12k,0,1-3年,全职,本科,周末双休、五险一金、节日福利,23.094888,113.382897,"['SPSS', '数据分析', 'SQL']"
12,数据分析,KLOOK 客路旅行,500-2000人,旅游,D轮及以上,"['扁平管理', '国际化团队', '旅游基金', '定期体检']",运营|编辑|客服类,运营,数据运营,深圳,福田区,20k-30k,0,5-10年,全职,本科,独角兽；D+轮融资,22.533416,114.030246,"['电商', '数据分析']"
13,数据分析,婚礼纪,500-2000人,消费生活,D轮及以上,"['六险一金', '快乐高效文化', '绩效奖金', '信任']",开发|测试|运维类,数据开发,数据分析,杭州,西湖区,10k-20k,14,3-5年,全职,本科,六险一金 带薪年假 多次调薪 周末双休,30.287650,120.112550,"['Hadoop', 'Spark', '广告营销', '数仓建模', '本地生活', 'MySQL']"
14,数据分析师,方纬科技,50-150人,移动互联网,不需要融资,"['年底双薪', '节日礼物', '绩效奖金', '年度旅游']",产品|需求|项目类,产品经理,数据分析师,宿迁,宿城区,4k-8k,14,不限,全职,本科,六险一金 年终奖金 节日福利 高温补贴,33.956493,118.226158,['数据分析']
0,数据分析师（数据建设及管理方向）-【商业化】,快手,2000人以上,文娱丨内容,D轮及以上,"['股票期权', '弹性工作', '定期体检', '岗位晋升']",产品|需求|项目类,数据分析,业务运营,北京,海淀区,20k-40k,0,3-5年,全职,本科,"大平台,发展快",39.904030,116.407526,['数据分析']
1,数据分析讲师,拉勾网,500-2000人,企业服务,D轮及以上,"['五险一金', '弹性工作', '带薪年假', '免费两餐']",开发|测试|运维类,数据开发,数据分析,北京,海淀区,25k-50k,16,不限,全职,本科,福利待遇好，发展前景好,39.982128,116.307747,"['MySQL', '数据分析', 'Python']"
2,数据分析导师,拉勾网,500-2000人,企业服务,D轮及以上,"['五险一金', '弹性工作', '带薪年假', '免费两餐']",产品|需求|项目类,数据分析,数据分析,北京,海淀区,10k-15k,13,1-3年,全职,本科,七险一金，弹性工作制，领导nice,39.982128,116.307747,"['教育', '数据分析']"
3,数据分析师,云汉芯城,500-2000人,电商,C轮,"['节日礼物', '岗位晋升', '技能培训', '领导好']",产品|需求|项目类,产品经理,数据分析师,上海,松江区,13k-20k,0,3-5年,全职,本科,五险一金 晋升空间 周末双休 绩效奖金,31.093229,121.325026,"['python', 'sql', '数据分析', '电商', 'BI']"
4,销售数据分析,美团,2000人以上,消费生活,上市公司,"['技能培训', '绩效奖金', '岗位晋升', '领导好']",运营|编辑|客服类,运营,数据运营,北京,朝阳区,15k-30k,0,不限,全职,本科,行业发展前景好，团队规模大,40.008007,116.487760,"['移动互联网', '电商', '电商运营', '数据分析']"
5,高级数据分析师_业务分析方向,百布,500-2000人,移动互联网,D轮及以上,"['行业翘首', '扁平管理', '领导NICE', '美女多']",产品|需求|项目类,数据分析,商业,广州,海珠区,18k-35k,0,5-10年,全职,本科,"不打卡,五险一金,扁平化管理,氛围轻松；",23.077989,113.327504,"['商业', '数据运营', '数据分析', '增长黑客']"
6,到店技术-数据分析师,美团,2000人以上,消费生活,上市公司,"['技能培训', '绩效奖金', '岗位晋升', '领导好']",开发|测试|运维类,数据开发,数据分析,上海,长宁区,25k-50k,15,3-5年,全职,本科,大平台，强技术,31.218123,121.375077,['数据分析']
7,高级数据分析工程师,百度,2000人以上,工具,不需要融资,"['股票期权', '弹性工作', '五险一金', '免费班车']",开发|测试|运维类,数据开发,数据开发,北京,未知,30k-60k,15,不限,全职,本科,大厂、薪酬待遇、发展前景,,,"['数据库开发', '数据分析', '数据挖掘']"
8,数据分析师,阿卡索外教网,2000人以上,"教育,移动互联网",C轮,"['带薪年假', '弹性工作', '美女多', '领导好']",产品|需求|项目类,数据分析,商业,深圳,罗湖区,15k-30k,0,在校/应届,全职,大专,五险一金，双休，错峰上班,22.540801,114.121301,"['商业', 'BI', '数据分析']"
9,高级/资深数据分析师【用户增长】,跟谁学,2000人以上,"移动互联网,教育",上市公司,"['节日礼物', '技能培训', '股票期权', '精英团队']",产品|需求|项目类,数据分析,数据分析,北京,海淀区,20k-40k,0,3-5年,全职,本科,六险一金、绩效奖金,40.048632,116.282935,"['BI', '数据运营', '商业', '数据分析']"
10,数据分析师,莉莉丝游戏,500-2000人,"移动互联网,游戏",不需要融资,"['项目奖金', '零食无限量', '牛逼的同事', '境外旅游']",开发|测试|运维类,数据开发,数据分析,上海,闵行区,12k-20k,0,3-5年,全职,本科,"弹性工作,福利待遇好,工作氛围好,团建",31.160489,121.395334,"['数据分析', 'MySQL']"
11,数据分析师,东家,150-500人,移动互联网,B轮,"['股票期权', '学者明星活动', '东方美学培训', '牛人分享']",产品|需求|项目类,产品经理,数据分析师,杭州,西湖区,3k-5k,0,在校/应届,实习,本科,高成长性岗位,30.285820,120.041460,"['流程设计', '数据分析']"
12,数据分析师,51Talk 无忧英语,2000人以上,"移动互联网,教育",上市公司,"['带薪年假', '股票期权', '绩效奖金', '定期体检']",开发|测试|运维类,数据开发,数据分析,北京,海淀区,10k-18k,0,在校/应届,全职,本科,团队氛围好 成长快 美国上市 在线教育,40.045415,116.308144,"['大数据', '教育', '数据分析']"
13,数据分析leader,土巴兔,500-2000人,"移动互联网,消费生活",C轮,"['股票期权', '五险一金', '带薪年假', '节日礼物']",开发|测试|运维类,数据开发,数据分析,深圳,未知,30k-36k,14,5-10年,全职,本科,独角兽 O2O 互联网家装领头羊 氛围open,,,['数据分析']
14,数据分析师,联合金科信息科技有限公司,50-150人,移动互联网,未融资,"['带薪年假', '弹性工作', '扁平管理', '五险一金']",产品|需求|项目类,数据分析,数据分析,深圳,南山区,6k-10k,0,不限,全职,不限,五险一金,22.506695,113.939962,"['大数据', '数据运营', '数据库', '数据分析']"
0,数据分析师,快手,2000人以上,文娱丨内容,D轮及以上,"['股票期权', '弹性工作', '定期体检', '岗位晋升']",产品|需求|项目类,产品经理,数据分析师,北京,海淀区,30k-60k,16,5-10年,全职,本科,大牛云集，核心项目，发展空间巨大,40.053902,116.313599,"['风险控制', '数据分析']"
1,数据分析师,吉比特,500-2000人,游戏,上市公司,"['上市游戏公司', '百万购房借款', '兴趣导向', '12%公积金']",开发|测试|运维类,数据开发,数据分析,深圳,南山区,10k-15k,0,在校/应届,全职,本科,房补餐补、年终奖金、旅游奖金、带薪假,22.556001,113.972780,"['游戏', '数据分析']"
2,数据分析师,萌牙家,150-500人,"电商,医疗丨健康",未融资,"['扁平管理', '弹性工作', '节日礼物', '技能培训']",市场|商务类,市场|营销,商业数据分析,宁波,鄞州区,12k-18k,0,在校/应届,全职,本科,CEO亲自培养 扁平化管理 月入过万,29.817087,121.554199,"['广告营销', '行业分析', '市场竞争分析', '电商', '市场推广', '消费者分析']"
3,【识货】资深数据分析师,得物App,500-2000人,"移动互联网,电商",B轮,"['绩效奖金', '带薪年假', '定期体检', '节日礼物']",产品|需求|项目类,产品经理,数据分析师,上海,杨浦区,20k-40k,16,3-5年,全职,本科,互联网 扁平化 高福利,31.272333,121.530215,"['商业分析', '数据仓库', '数据分析']"
4,数据分析师（算法方向）,平安金服,2000人以上,金融,上市公司,[],开发|测试|运维类,数据开发,数据分析,上海,浦东新区,25k-50k,17,3-5年,全职,本科,福利待遇优厚，发展前景广阔,31.220724,121.381215,"['Hive', '金融', 'Spark', '大数据']"
5,大数据分析师,平安金服,2000人以上,金融,上市公司,[],开发|测试|运维类,数据开发,数据分析,深圳,罗湖区,25k-50k,17,3-5年,全职,本科,福利待遇优厚，发展前景广阔,22.540466,114.107636,"['Hive', 'Hadoop', '大数据']"
6,数据分析师,国誉信睿,15-50人,企业服务,未融资,"['带薪年假', '技能培训', '扁平管理', '管理规范']",开发|测试|运维类,数据开发,数据分析,杭州,滨江区,15k-20k,0,3-5年,全职,本科,"五险一金,周末双休,扁平管理,机会大",30.204540,120.210146,"['数据分析', '数据挖掘']"
7,数据分析洞察师/数据解决方案专家,汉跃文化传媒,50-150人,广告营销,未融资,[],产品|需求|项目类,产品经理,数据分析师,上海,黄浦区,15k-25k,0,3-5年,全职,本科,五险一金 团建,31.206605,121.478495,['数据分析']
8,数据分析师（安全方向）,上海银科创展投资集团有限公司,2000人以上,"移动互联网,金融",上市公司,[],产品|需求|项目类,产品经理,数据分析师,上海,浦东新区,15k-30k,13,3-5年,全职,本科,上市公司,31.221890,121.530276,"['金融', '数据分析']"
9,数据分析经理/主管（财务类）,行云网,150-500人,"电商,消费生活",B轮,"['带薪年假', '股票期权', '五险一金', '互联网公司']",产品|需求|项目类,产品经理,数据分析师,杭州,萧山区,10k-15k,0,3-5年,全职,本科,五险一金 周末双休 发展空间 团队领导好,30.244956,120.246619,['数据分析']
10,数据分析师,樊登读书,150-500人,"移动互联网,教育",A轮,"['节日礼物', '股票期权', '带薪年假', '绩效奖金']",产品|需求|项目类,产品经理,数据分析师,上海,长宁区,10k-15k,13,在校/应届,全职,本科,晋升空间大 办公环境好 福利好,31.206768,121.407040,['数据分析']
11,高级/资深数据分析师,易观,150-500人,"移动互联网,数据服务",B轮,"['专项奖金', '午餐补助', '技能培训', '扁平管理']",开发|测试|运维类,数据开发,数据分析,上海,长宁区,25k-50k,0,5-10年,全职,本科,快速成长/弹性工作/扁平管理,31.217541,121.428240,"['数据仓库', '数据分析']"
12,数据分析师,北京盛业联众资产管理集团有限公司,50-150人,金融,未融资,[],金融类,互联网金融,分析师,北京,朝阳区,8k-11k,0,不限,全职,不限,五险一金.节假日双休,39.919894,116.454562,"['分析师', '行业研究', '数据分析']"
13,金融数据分析师 五险双休,储慧国际咨询,150-500人,金融,未融资,[],金融类,银行,客户经理,北京,朝阳区,8k-16k,0,不限,全职,不限,五险一金，朝九晚五，周末双休，弹性工作,39.920065,116.454674,"['金融', '数据分析']"
14,资深数据分析师 (MJ000088),政采云,150-500人,电子商务,不需要融资,"['带薪年假', '绩效奖金', '定期体检', '弹性工作']",开发|测试|运维类,数据开发,数据分析,杭州,西湖区,15k-25k,0,3-5年,全职,不限,福利待遇，发展前景,30.129580,120.087730,"['大数据', '移动互联网', '数据分析']"
0,数据分析（偏算法）,上海钢软,500-2000人,"移动互联网,电商",上市公司,"['专项奖金', '带薪年假', '绩效奖金', '定期体检']",开发|测试|运维类,数据开发,数据分析,上海,浦东新区,10k-15k,0,1-3年,全职,本科,发展前景好，团队实力强,31.211702,121.603372,"['物流', '电商', '数据分析']"
1,大数据分析师,南方报业,2000人以上,其他,不需要融资,"['技能培训', '专项奖金', '带薪年假', '绩效奖金']",开发|测试|运维类,数据开发,数据分析,广州,越秀区,10k-20k,14,3-5年,全职,本科,环境佳，平台大，机会多,23.122914,113.314623,"['Hive', 'SQLServer', 'ETL', '数据仓库', '数据分析']"
2,数据分析师-游戏,宜搜,150-500人,"移动互联网,游戏",D轮及以上,"['年底双薪', '绩效奖金', '带薪年假', '节日礼物']",开发|测试|运维类,数据开发,数据分析,深圳,南山区,10k-15k,0,1-3年,全职,大专,"六险一金,周末双休，旅游，带薪年假",22.523392,113.937987,"['游戏', '数据挖掘']"
3,智能设备-数据分析专员(J11223),明略科技集团,2000人以上,"数据服务,广告营销",D轮及以上,"['六险一金', '年底双薪', '绩效奖金', '完成E轮融资']",开发|测试|运维类,数据开发,数据分析,北京,朝阳区,8k-10k,0,不限,全职,不限,福利丰厚,39.995024,116.479717,"['移动互联网', '数据分析']"
4,数据分析师,仙度网络,少于15人,数据服务,A轮,[],产品|需求|项目类,产品经理,数据分析师,杭州,下沙,3k-6k,0,不限,全职,本科,五险一金、双休、半年调薪,30.303553,120.369678,"['用户增长', '竞品分析', '需求分析', '用户研究', '数据分析']"
5,数据分析产品经理,前程无忧,500-2000人,"移动互联网,企业服务",上市公司,"['专业 职业', '技能培训', '管理规范', '美女多']",产品|需求|项目类,产品经理,产品经理,北京,西城区,20k-30k,0,5-10年,全职,本科,稳定，福利待遇好,39.908342,116.375121,"['财务', '数据分析', 'ERP']"
6,数据分析专家（商业地理地产）,MobTech,150-500人,"数据服务,广告营销",B轮,[],产品|需求|项目类,高端产品职位,数据分析专家,上海,徐汇区,25k-45k,14,3-5年,全职,本科,发展前景好，薪酬福利好,31.177394,121.417100,"['商业地产', '数据分析']"
7,数据分析师,字节跳动,2000人以上,文娱丨内容,C轮,"['扁平管理', '弹性工作', '大厨定制三餐', '就近租房补贴']",产品|需求|项目类,数据分析,数据分析,上海,闵行区,15k-25k,0,3-5年,全职,本科,"六险一金,免费三餐,租房补贴,带薪休假",31.164877,121.387073,"['广告', '数据分析']"
8,数据分析师,字节跳动,2000人以上,文娱丨内容,C轮,"['扁平管理', '弹性工作', '大厨定制三餐', '就近租房补贴']",产品|需求|项目类,数据分析,数据分析,北京,海淀区,20k-25k,0,3-5年,全职,本科,六险一金,39.979578,116.369044,['数据分析']
9,数据分析营销课讲师,拉勾网,500-2000人,企业服务,D轮及以上,"['五险一金', '弹性工作', '带薪年假', '免费两餐']",教育|培训,培训,培训讲师,北京,海淀区,15k-30k,13,3-5年,全职,本科,领导Nice 高薪职业,39.982128,116.307747,"['有提成', '教育', '数据分析']"
10,资深数据分析师,拉勾网,500-2000人,企业服务,D轮及以上,"['五险一金', '弹性工作', '带薪年假', '免费两餐']",产品|需求|项目类,产品经理,数据分析师,北京,海淀区,20k-35k,0,3-5年,全职,本科,福利待遇好，周末双休，提供午餐和晚餐,39.982128,116.307747,['数据分析']
11,数据分析师-风控,美团,2000人以上,消费生活,上市公司,"['技能培训', '绩效奖金', '岗位晋升', '领导好']",开发|测试|运维类,数据开发,其他数据开发,北京,朝阳区,18k-22k,0,不限,全职,不限,五险一金,40.008142,116.486622,['数据分析']
12,数据分析运营专家,美团,2000人以上,消费生活,上市公司,"['技能培训', '绩效奖金', '岗位晋升', '领导好']",运营|编辑|客服类,运营,其他运营,北京,朝阳区,22k-28k,0,不限,全职,不限,五险一金,40.008142,116.486622,"['数据', '数据分析']"
13,数据分析经理/主管（财务类）,行云网,150-500人,"电商,消费生活",B轮,"['带薪年假', '股票期权', '五险一金', '互联网公司']",产品|需求|项目类,产品经理,数据分析师,杭州,萧山区,10k-15k,0,3-5年,全职,本科,五险一金 周末双休 发展空间 团队领导好,30.244956,120.246619,['数据分析']
14,高级/资深数据分析师,易观,150-500人,"移动互联网,数据服务",B轮,"['专项奖金', '午餐补助', '技能培训', '扁平管理']",开发|测试|运维类,数据开发,数据分析,上海,长宁区,25k-50k,0,5-10年,全职,本科,快速成长/弹性工作/扁平管理,31.217541,121.428240,"['数据仓库', '数据分析']"
0,数据分析（商业化方向）,琥珀创想,50-150人,移动互联网,A轮,"['绩效奖金', '提供工作餐', '定期团建', '交通补助']",运营|编辑|客服类,运营,数据运营,北京,朝阳区,17k-22k,0,3-5年,全职,本科,海外工具app；,40.043555,116.414402,"['用户增长', '工具软件', '效果跟踪', '转化变现', '策略运营']"
1,数据分析专员,琥珀创想,50-150人,移动互联网,A轮,"['绩效奖金', '提供工作餐', '定期团建', '交通补助']",开发|测试|运维类,数据开发,数据分析,大连,高新园区,6k-8k,0,1-3年,全职,本科,高效协作的团队；信息共享；双休,38.862155,121.533705,"['Linux系统', '互联网', '数据分析', 'Python']"
2,数据分析/数据科学研究员,微慕客（成都）科技有限公司,50-150人,数据服务,不需要融资,[],开发|测试|运维类,数据开发,数据分析,成都,双流县,10k-20k,0,3-5年,全职,本科,五险一金 弹性工作 扁平管理 微软项目,30.402185,104.081189,"['大数据', '教育', '数据分析']"
3,数据分析负责人 or 数据分析师,同花顺,2000人以上,"金融,电商",上市公司,"['带薪年假', '定期体检', '免费班车', '领导好']",开发|测试|运维类,数据开发,数据分析,杭州,余杭区,25k-50k,0,3-5年,全职,本科,PB量级数据 核心项目 食堂班车健身房,30.291923,120.045424,"['数据挖掘', '数据分析', 'MySQL']"
4,会员数据分析师,爱奇艺,2000人以上,文娱丨内容,上市公司,"['绩效奖金', '五险一金', '交通补助', '带薪年假']",开发|测试|运维类,数据开发,数据分析,北京,朝阳区,15k-25k,0,3-5年,全职,本科,大平台 学习机会多,39.935321,116.444255,"['数据分析', 'MySQL']"
5,京东数据分析岗,京东信息技术有限公司成都分公司,2000人以上,电商,上市公司,"['年底双薪', '定期体检', '午餐补助', '交通补助']",开发|测试|运维类,数据开发,数据分析,成都,武侯区,6k-12k,0,3-5年,全职,本科,年底双薪、系统晋升,30.634156,103.977921,"['大数据', '数据挖掘']"
6,智能设备-数据分析专员(J11223),明略科技集团,2000人以上,"数据服务,广告营销",D轮及以上,"['六险一金', '年底双薪', '绩效奖金', '完成E轮融资']",开发|测试|运维类,数据开发,数据分析,北京,朝阳区,8k-10k,0,不限,全职,不限,福利丰厚,39.995024,116.479717,"['移动互联网', '数据分析']"
7,数据分析师,仙度网络,少于15人,数据服务,A轮,[],产品|需求|项目类,产品经理,数据分析师,杭州,下沙,3k-6k,0,不限,全职,本科,五险一金、双休、半年调薪,30.303553,120.369678,"['用户增长', '竞品分析', '需求分析', '用户研究', '数据分析']"
8,高级数据分析工程师,中邮信息科技（北京）有限公司,500-2000人,"移动互联网,其他",不需要融资,"['技能培训', '六险二金', '多样技术环境', '平台稳定']",开发|测试|运维类,数据开发,数据分析,北京,西城区,25k-45k,0,5-10年,全职,本科,六险二金 食堂 旅游基金 工会福利,39.900559,116.358753,"['机器学习', '数据建模', '深度学习', '数据分析']"
9,大数据分析师,平安金服,2000人以上,金融,上市公司,[],开发|测试|运维类,数据开发,数据分析,深圳,罗湖区,25k-50k,17,3-5年,全职,本科,福利待遇优厚，发展前景广阔,22.540466,114.107636,"['Hive', 'Hadoop', '大数据']"
10,数据分析专家（商业地理地产）,MobTech,150-500人,"数据服务,广告营销",B轮,[],产品|需求|项目类,高端产品职位,数据分析专家,上海,徐汇区,25k-45k,14,3-5年,全职,本科,发展前景好，薪酬福利好,31.177394,121.417100,"['商业地产', '数据分析']"
11,游戏数据分析师,广州游爱,500-2000人,"移动互联网,游戏",上市公司,"['年终分红', '绩效奖金', '专项奖金', '年底双薪']",产品|需求|项目类,数据分析,数据分析,广州,黄埔区,13k-26k,0,3-5年,全职,本科,五险一金 带薪年假 包三餐,23.171621,113.458786,"['SPSS', '数据运营', '数据分析', '游戏']"
12,高级数据分析师,无极慧通,50-150人,"医疗丨健康,数据服务",A轮,"['技能培训', '年底双薪', '岗位晋升', '领导好']",开发|测试|运维类,数据开发,数据分析,北京,海淀区,15k-30k,0,1-3年,全职,本科,"广阔的发展,创业公司,融洽的办公",39.972094,116.338474,"['医疗健康', '大数据', '数据分析']"
13,游戏数据分析师,奇迅新游,150-500人,"移动互联网,游戏",未融资,"['带薪年假', '绩效奖金', '年度旅游', '美女多']",产品|需求|项目类,数据分析,数据分析,深圳,南山区,12k-24k,13,3-5年,全职,本科,双休 轻松工作氛围 成熟项目,22.549213,113.944496,"['游戏', '数据运营', '数据分析']"
14,游戏业务中台数据分析师,字节跳动,2000人以上,文娱丨内容,C轮,"['扁平管理', '弹性工作', '大厨定制三餐', '就近租房补贴']",产品|需求|项目类,数据分析,其他数据分析,上海,闵行区,18k-36k,0,3-5年,全职,本科,"用户过亿,弹性工作,股票期权,六险一金",31.164877,121.387073,['数据分析']
0,数据分析专家,字节跳动,2000人以上,文娱丨内容,C轮,"['扁平管理', '弹性工作', '大厨定制三餐', '就近租房补贴']",产品|需求|项目类,数据分析,其他数据分析,北京,海淀区,15k-30k,0,3-5年,全职,本科,"六险一金,租房补贴,免费三餐,弹性工作",39.971819,116.328708,['数据分析']
1,数据分析师（安全方向）,上海银科创展投资集团有限公司,2000人以上,"移动互联网,金融",上市公司,[],产品|需求|项目类,产品经理,数据分析师,上海,浦东新区,15k-30k,13,3-5年,全职,本科,上市公司,31.221890,121.530276,"['金融', '数据分析']"
2,商业搜索研发部_PMO&amp;数据分析,百度,2000人以上,工具,不需要融资,"['股票期权', '弹性工作', '五险一金', '免费班车']",产品|需求|项目类,项目管理,PMO,北京,海淀区,15k-30k,0,不限,全职,本科,发展前景,40.043482,116.273555,"['项目管理', '数据分析', 'PMO']"
3,Java开发工程师（数据分析）,华资软件,500-2000人,"移动互联网,数据服务",上市公司,"['培训伴你始终', '入户广州', '国内外旅游', '专业机构体检']",开发|测试|运维类,后端开发,Java,广州,天河区,8k-14k,15,1-3年,全职,本科,六险一金，大平台，福利好，14薪+,23.126341,113.371350,"['机器学习', '工具软件', 'Java', 'python爬虫', '企业服务', 'Python']"
4,数据分析专员-488,飞书深诺,500-2000人,"社交,广告营销",D轮及以上,"['技能培训', '扁平管理', '五险一金', '弹性工作']",产品|需求|项目类,数据分析,数据分析,上海,长宁区,8k-12k,14,1-3年,全职,不限,超长带薪年假 健身卡 免费早餐,31.203651,121.417495,"['电商', '数据分析']"
5,【识货】资深数据分析师,得物App,500-2000人,"移动互联网,电商",B轮,"['绩效奖金', '带薪年假', '定期体检', '节日礼物']",产品|需求|项目类,产品经理,数据分析师,上海,杨浦区,20k-40k,16,3-5年,全职,本科,互联网 扁平化 高福利,31.272333,121.530215,"['商业分析', '数据仓库', '数据分析']"
6,数据分析岗（业务方向）,广发银行信用卡中心,2000人以上,金融,不需要融资,"['管理规范', '平台大机遇好', '金融科技', '绩效奖金']",产品|需求|项目类,数据分析,数据分析,广州,天河区,20k-40k,0,5-10年,全职,本科,"周末双休,带薪年假,五险一金,提供食堂",23.121089,113.323120,"['数据分析', '商业', '可视化', 'SQL']"
7,数据分析产品经理,前程无忧,500-2000人,"移动互联网,企业服务",上市公司,"['专业 职业', '技能培训', '管理规范', '美女多']",产品|需求|项目类,产品经理,产品经理,北京,西城区,20k-30k,0,5-10年,全职,本科,稳定，福利待遇好,39.908342,116.375121,"['财务', '数据分析', 'ERP']"
8,高级数据分析师,六律科技,500-2000人,"数据服务,移动互联网",不需要融资,"['年底双薪', '年终分红', '绩效奖金', '定期体检']",产品|需求|项目类,产品经理,数据分析师,北京,西城区,27k-35k,0,3-5年,全职,本科,六险一金，地铁周边，90后帅哥美女。,39.878750,116.380000,['数据分析']
9,数据分析专家,伊澳科技,2000人以上,"移动互联网,电商",上市公司,"['专项奖金', '股票期权', '绩效奖金', '年终分红']",产品|需求|项目类,高端产品职位,数据分析专家,北京,朝阳区,35k-55k,15,5-10年,全职,本科,"美女多,有期权,即将上市,大牛多",39.949277,116.460558,"['决策能力', '电商', '业务流程管理']"
10,数据分析（数值方向）,仙潭酒业集团,500-2000人,其他,不需要融资,"['社会保险', '年终奖金', '节日福利', '生日礼物']",开发|测试|运维类,数据开发,数据分析,成都,高新区,7k-12k,13,不限,全职,本科,互联网,30.607632,104.034257,"['数据架构', '数据分析', '数据挖掘']"
11,金融数据分析师,储慧国际咨询,150-500人,金融,未融资,[],开发|测试|运维类,数据开发,数据分析,北京,朝阳区,8k-15k,0,不限,全职,不限,五险一金.节假日双休.生日福利,39.920065,116.454674,"['金融', '数据分析']"
12,数据分析师（算法方向）,平安金服,2000人以上,金融,上市公司,[],开发|测试|运维类,数据开发,数据分析,上海,浦东新区,25k-50k,17,3-5年,全职,本科,福利待遇优厚，发展前景广阔,31.220724,121.381215,"['Hive', '金融', 'Spark', '大数据']"
13,游戏业务管理-资深数据分析师,字节跳动,2000人以上,文娱丨内容,C轮,"['扁平管理', '弹性工作', '大厨定制三餐', '就近租房补贴']",产品|需求|项目类,项目管理,其他项目管理,北京,海淀区,20k-40k,0,不限,全职,本科,"下午茶,健身瑜伽,六险一金,五险一金",39.983339,116.315437,"['项目管理', '数据分析']"
14,市场与用户研究经理——数据分析方向,字节跳动,2000人以上,文娱丨内容,C轮,"['扁平管理', '弹性工作', '大厨定制三餐', '就近租房补贴']",运营|编辑|客服类,运营,其他运营,深圳,南山区,15k-30k,0,3-5年,全职,本科,"六险一金,弹性工作,免费三餐,租房补贴",22.511996,113.925762,"['运营', '数据分析']"
0,数据分析师(J208186),我爱我家集团,2000人以上,房产家居,上市公司,[],产品|需求|项目类,产品经理,数据分析师,上海,徐汇区,10k-20k,13,3-5年,全职,本科,五险一金、带薪年假、季度奖金、年度奖金,31.186598,121.455979,['数据分析']
1,数据分析师,跟谁学,2000人以上,"移动互联网,教育",上市公司,"['节日礼物', '技能培训', '股票期权', '精英团队']",产品|需求|项目类,产品经理,数据分析师,北京,海淀区,15k-25k,0,3-5年,全职,本科,平台大、发展快、人才多、氛围好,40.048632,116.282935,"['教育', '数据分析']"
2,数据分析师-515,飞书深诺,500-2000人,"社交,广告营销",D轮及以上,"['技能培训', '扁平管理', '五险一金', '弹性工作']",产品|需求|项目类,数据分析,数据分析,上海,长宁区,8k-12k,14,1-3年,全职,本科,超长带薪年假 健身卡 免费早餐,31.203651,121.417495,"['广告营销', '数据分析']"
3,数据分析师-游戏,宜搜,150-500人,"移动互联网,游戏",D轮及以上,"['年底双薪', '绩效奖金', '带薪年假', '节日礼物']",开发|测试|运维类,数据开发,数据分析,深圳,南山区,10k-15k,0,1-3年,全职,大专,"六险一金,周末双休，旅游，带薪年假",22.523392,113.937987,"['游戏', '数据挖掘']"
4,车联网数据分析,ExceedData,15-50人,"数据服务,移动互联网",未融资,[],开发|测试|运维类,数据开发,数据挖掘,上海,杨浦区,15k-28k,13,不限,全职,本科,发展空间大、灵活办公,31.258926,121.513412,"['机器学习', '数学', '数据分析', '数据挖掘']"
5,数据分析师,拉勾网,500-2000人,企业服务,D轮及以上,"['五险一金', '弹性工作', '带薪年假', '免费两餐']",产品|需求|项目类,产品经理,数据分析师,北京,海淀区,15k-20k,14,1-3年,全职,本科,发展前景,39.982128,116.307747,"['用户增长', '企业服务', '需求分析', '数据分析']"
6,数据分析经理/主管（财务类）,行云网,150-500人,"电商,消费生活",B轮,"['带薪年假', '股票期权', '五险一金', '互联网公司']",产品|需求|项目类,产品经理,数据分析师,杭州,萧山区,10k-15k,0,3-5年,全职,本科,五险一金 周末双休 发展空间 团队领导好,30.244956,120.246619,['数据分析']
7,高级数据分析师（渠道）,美团,2000人以上,消费生活,上市公司,"['技能培训', '绩效奖金', '岗位晋升', '领导好']",产品|需求|项目类,数据分析,其他数据分析,北京,朝阳区,25k-35k,0,不限,全职,不限,创新业务，发展空间大,40.008142,116.486622,['数据分析']
8,数据分析师(广告方向),多牛传媒,500-2000人,文娱丨内容,上市公司,"['五险一金', '节日礼物', '弹性工作', '岗位晋升']",产品|需求|项目类,数据分析,数据分析,北京,海淀区,15k-30k,0,1-3年,全职,硕士,弹性工作 发展大,40.035561,116.377066,"['社交', '数据库', '游戏', '数据分析', 'SQL']"
9,BI数据分析师,达摩网络,150-500人,"企业服务,消费生活",A轮,"['扁平管理', '节日礼物', '岗位晋升', '定期体检']",开发|测试|运维类,数据开发,数据分析,杭州,西湖区,10k-20k,13,3-5年,全职,本科,发展空间大，福利多,30.277117,120.125105,"['报表可视化', 'BI', '数据分析']"
10,数据分析师（高级）,优车库,50-150人,"移动互联网,消费生活",A轮,"['年底双薪', '股票期权', '专项奖金', '带薪年假']",开发|测试|运维类,数据开发,数据分析,深圳,福田区,12k-20k,0,1-3年,全职,本科,发展前景、环境优美、团队氛围好,22.507374,114.045254,"['SQLServer', '数仓建模', '新零售', '数据仓库', '汽车', 'Python']"
11,Tableau数据分析师,上海联蔚信息科技有限公司,500-2000人,"移动互联网,电商",不需要融资,[],运营|编辑|客服类,运营,数据运营,南京,秦淮区,10k-15k,0,3-5年,全职,本科,平台大，前景广,32.006767,118.785888,"['Tableau', '电商', '数据分析']"
12,数据分析专家,视野金融,50-150人,"移动互联网,金融",A轮,"['股票期权', '绩效奖金', '岗位晋升', '扁平管理']",产品|需求|项目类,高端产品职位,数据分析专家,北京,朝阳区,25k-35k,0,3-5年,全职,本科,五险一金，定期团建,39.916108,116.459370,"['图数据库', '数据模型', '关系型数据库', '数据分析']"
13,数据分析助理（双休+五险一金）,百圣信息,50-150人,"通讯电子,软件开发",未融资,"['年底双薪', '股票期权', '专项奖金', '绩效奖金']",运营|编辑|客服类,客服,售前客服,深圳,宝安区,6k-8k,13,不限,全职,大专,五险一金年底双薪&nbsp;包住全勤奖带薪年假,22.555259,113.884020,"['售前', '售后', '销售', '客服', '电商', '信息安全']"
14,数据分析师-【游戏业务】,快手,2000人以上,文娱丨内容,D轮及以上,"['股票期权', '弹性工作', '定期体检', '岗位晋升']",产品|需求|项目类,数据分析,数据分析,北京,海淀区,20k-40k,0,3-5年,全职,本科,福利完善,40.053389,116.298440,['数据分析']
0,直播运营（数据分析）,上海中软华腾软件系统有限公司,2000人以上,"企业服务,金融",上市公司,"['绩效奖金', '带薪年假', '定期体检', '管理规范']",MCN|直播|网红,运营,直播运营,深圳,南山区,6k-12k,0,1-3年,全职,本科,双休呀 免费早餐 免费班车,22.540490,113.933732,"['直播', '数据分析', '数据挖掘']"
1,数据分析师,拉勾网,500-2000人,企业服务,D轮及以上,"['五险一金', '弹性工作', '带薪年假', '免费两餐']",产品|需求|项目类,产品经理,数据分析师,北京,海淀区,20k-40k,0,5-10年,全职,不限,"发展空间大,弹性工作制,领导Nice",39.982128,116.307747,"['招聘', '移动互联网', '数据分析']"
2,数据研发工程师-高级数据分析师,小鹅（小鹅通）,500-2000人,"移动互联网,社交",C轮,"['扁平管理', '领导nice', '专项奖金', '定期体检']",开发|测试|运维类,数据开发,数据分析,深圳,南山区,20k-30k,15,5-10年,全职,本科,氛围好，前景好,22.549041,113.943289,"['数据仓库', '数仓建模', 'Hadoop', '数据分析']"
3,数据分析/商业分析专家,平安金服,2000人以上,金融,上市公司,[],产品|需求|项目类,数据分析,数据分析,上海,浦东新区,16k-30k,17,3-5年,全职,本科,带薪年假，年度旅游、体检,31.236498,121.545101,"['数据库', '商业', 'BI', '数据分析', 'SQL']"
4,数据分析师（金融方向）,马上消费,2000人以上,"金融,移动互联网",不需要融资,"['股票期权', '年终分红', '绩效奖金', '带薪年假']",开发|测试|运维类,数据开发,数据分析,重庆,渝北区,20k-35k,0,5-10年,全职,本科,发展前景、大牛团队、持牌机构,29.616449,106.500997,"['数据仓库', 'Spark', '数据分析', 'MySQL']"
5,数据分析实习生,优贝在线,150-500人,"移动互联网,社交",不需要融资,"['五险一金', '带薪年假', '管理规范', '年底多薪']",开发|测试|运维类,数据开发,数据分析,北京,朝阳区,4k-8k,0,在校/应届,实习,本科,产品持续盈利、技术牛、老板赞，福利棒,40.036447,116.417438,"['移动互联网', '数据分析', '社交']"
6,数据分析实习,人人公司,2000人以上,"社交,金融",上市公司,"['五险一金', '通讯津贴', '带薪年假', '绩效奖金']",产品|需求|项目类,数据分析,其他数据分析,北京,朝阳区,3k-4k,0,在校/应届,实习,不限,项目前景好，领导nice，弹性工作,39.976297,116.496989,"['商业', '数据分析']"
7,数据分析实习生,易久批,2000人以上,"电商,移动互联网",D轮及以上,"['带薪年假', '绩效奖金', '管理规范', '岗位晋升']",开发|测试|运维类,数据开发,数据分析,武汉,洪山区,3k-4k,0,在校/应届,实习,本科,双休 技术氛围好,30.556416,114.503246,"['数据仓库', '数据分析']"
8,Excel数据分析员,深圳景同,15-50人,通讯电子,未融资,[],开发|测试|运维类,数据开发,数据分析,深圳,宝安区,6k-9k,0,不限,全职,大专,感兴趣的人才快来吧！,22.568325,113.905316,"['Excel', '数据仓库', '电商', '数据挖掘']"
9,数据分析师,盒子科技,500-2000人,"移动互联网,金融",D轮及以上,"['技能培训', '俱乐部', '婚育礼金', '下午茶健身房']",产品|需求|项目类,产品经理,数据分析师,深圳,南山区,8k-15k,0,在校/应届,全职,本科,大平台，高薪资，高成长空间,22.523714,113.940802,['数据分析']
10,数据分析-2021届春招,同花顺,2000人以上,"金融,电商",上市公司,"['带薪年假', '定期体检', '免费班车', '领导好']",产品|需求|项目类,数据分析,数据分析,杭州,余杭区,20k-30k,15,不限,全职,本科,百万并发 千万日活 4亿付费用户,30.291923,120.045424,"['BI', '数据分析']"
11,美团优选-销售数据分析,美团,2000人以上,消费生活,上市公司,"['技能培训', '绩效奖金', '岗位晋升', '领导好']",市场|商务类,市场|营销,商业数据分析,北京,朝阳区,12k-18k,15,3-5年,全职,大专,平台大 发展好,40.008142,116.486622,['数据分析']
12,美团优选-数据分析,美团,2000人以上,消费生活,上市公司,"['技能培训', '绩效奖金', '岗位晋升', '领导好']",产品|需求|项目类,数据分析,其他数据分析,北京,朝阳区,15k-30k,15,3-5年,全职,本科,大平台 发展好,40.008142,116.486622,"['新零售', '本地生活', '数据分析']"
13,大数据分析师助理（单休）,土工干,50-150人,软件开发,未融资,[],开发|测试|运维类,数据开发,数据开发,郑州,高新区,3k-6k,0,在校/应届,全职,不限,双休，五险一金,34.801063,113.566250,"['大数据', '数据分析']"
14,数据分析师,BBGAME,150-500人,游戏,天使轮,[],产品|需求|项目类,产品经理,数据分析师,广州,天河区,10k-15k,0,1-3年,全职,大专,五险一金 年终奖金 节日礼品 餐费补贴,23.135331,113.318597,['数据分析']
0,金融数据分析师,中科聚信,50-150人,"数据服务,金融",B轮,[],开发|测试|运维类,数据开发,数据分析,青岛,崂山区,8k-15k,0,在校/应届,全职,本科,发展前景，技术创新，团队nice，薪酬福利完善,36.098016,120.471612,"['R', '金融', 'SAS', '大数据', 'Python']"
1,数据分析助理,金可国际集团-品牌眼镜事业群,500-2000人,消费生活,上市公司,[],产品|需求|项目类,数据分析,业务运营,上海,松江区,6k-7k,0,在校/应届,实习,本科,"工作环境,专业培训,五险一金,周末双休",31.144522,121.329408,"['SPSS', '数据运营', '数据分析']"
2,数据分析师-AI方向,联想集团,2000人以上,"移动互联网,数据服务",上市公司,"['五险一金', '绩效奖金', '午餐补助', '带薪年假']",开发|测试|运维类,数据开发,数据分析,北京,海淀区,10k-12k,13,1-3年,全职,本科,六险一金、带薪年假、弹性工作,40.046061,116.273572,"['数仓建模', 'Spark', '数据分析', 'MySQL']"
3,游戏数据分析师,阿里互动娱乐事业群,150-500人,"移动互联网,游戏",B轮,[],开发|测试|运维类,数据开发,数据分析,广州,海珠区,12k-20k,0,在校/应届,全职,本科,高速业务发展 大平台 游戏行业,23.102707,113.342660,"['游戏', 'Python', 'MySQL']"
4,数据分析-2021届春招,同花顺,2000人以上,"金融,电商",上市公司,"['带薪年假', '定期体检', '免费班车', '领导好']",产品|需求|项目类,数据分析,数据分析,杭州,余杭区,20k-30k,15,不限,全职,本科,百万并发 千万日活 4亿付费用户,30.291923,120.045424,"['BI', '数据分析']"
5,（高级）数据分析经理,中交兴路,500-2000人,"消费生活,移动互联网",A轮,"['带薪年假', '通讯津贴', '午餐补助', '定期体检']",产品|需求|项目类,数据分析,数据分析,北京,海淀区,15k-25k,0,3-5年,全职,本科,扁平管理 开放办公 五险一金 餐补,40.049249,116.295054,"['SQL', '数据运营', 'BI', '数据分析']"
6,数据分析主管（审核方向）,哔哩哔哩,2000人以上,"移动互联网,文娱丨内容",上市公司,"['带薪年假', '绩效奖金', '交通补助', '午餐补助']",运营|编辑|客服类,审核,数据审核,上海,杨浦区,9k-18k,15,3-5年,全职,本科,上市公司；五险一金；轻松氛围,31.308350,121.505825,"['数据审核', '内容审核', '数据分析']"
7,数据分析师,金山世游,2000人以上,游戏,上市公司,"['年底双薪', '绩效奖金', '年度旅游', '美女多']",产品|需求|项目类,产品经理,数据分析师,北京,海淀区,15k-22k,15,3-5年,全职,本科,发展空间大，团队实力强,40.047338,116.316186,"['游戏', '数据分析']"
8,金融量化数据分析实习生,富途,500-2000人,金融,上市公司,"['年底双薪', '腾讯系', '互联网金融', '年度体检']",开发|测试|运维类,数据开发,数据分析,深圳,南山区,3k-4k,0,在校/应届,实习,本科,腾讯系上市企业、bat团队、导师制,22.548245,113.943287,"['互联网金融', '数仓建模', 'SQLServer', 'Python']"
9,游戏数据分析师,阿里互动娱乐事业群,150-500人,"移动互联网,游戏",B轮,[],产品|需求|项目类,数据分析,数据分析,上海,徐汇区,12k-20k,0,在校/应届,全职,本科,平台大 业务高速发展,31.173886,121.403280,"['游戏行业', '数据分析']"
10,金杜理脉-实习法律数据分析师,理脉,15-50人,"移动互联网,数据服务",未融资,"['带薪年假', '岗位晋升', '管理规范', '五险一金']",产品|需求|项目类,数据分析,数据分析,北京,朝阳区,10k-15k,0,在校/应届,实习,本科,法律科技,39.918929,116.458782,"['大数据', '数据分析']"
11,APP数据分析师,赛博龙科技,15-50人,"移动互联网,其他",未融资,[],开发|测试|运维类,数据开发,数据分析,北京,朝阳区,15k-20k,13,3-5年,全职,本科,福利待遇好 领导nice 发展空间,40.000191,116.488413,"['日报周报', '数据分析', '数据挖掘']"
12,数据分析师,磐恒科技,15-50人,软件开发,不需要融资,[],产品|需求|项目类,产品经理,数据分析师,北京,朝阳区,15k-20k,13,3-5年,全职,本科,公司发展前景广阔,39.916105,116.436610,"['用户增长', '数据分析']"
13,数据分析（偏算法）,上海钢软,500-2000人,"移动互联网,电商",上市公司,"['专项奖金', '带薪年假', '绩效奖金', '定期体检']",开发|测试|运维类,数据开发,数据分析,上海,浦东新区,10k-15k,0,1-3年,全职,本科,发展前景好，团队实力强,31.211702,121.603372,"['物流', '电商', '数据分析']"
14,数据分析师（风控/反作弊）(J8KN1),乐我无限,500-2000人,"移动互联网,社交",B轮,"['带薪年假', '午餐补助', '专项奖金', '绩效奖金']",产品|需求|项目类,其他产品职位,其他产品职位,北京,朝阳区,20k-40k,15,3-5年,全职,本科,"六险一金, 用户过亿, 大牛带队",39.932032,116.536170,"['数据分析', '风控']"
0,车联网数据分析,ExceedData,15-50人,"数据服务,移动互联网",未融资,[],开发|测试|运维类,数据开发,数据挖掘,上海,杨浦区,15k-28k,13,不限,全职,本科,发展空间大、灵活办公,31.258926,121.513412,"['机器学习', '数学', '数据分析', '数据挖掘']"
1,高级数据分析师,小米集团,2000人以上,硬件,D轮及以上,"['快速成长', '免费班车', '扁平管理', '技能培训']",开发|测试|运维类,数据开发,数据分析,北京,海淀区,25k-40k,0,不限,全职,本科,七险一金 弹性工作 双休 年底奖金,40.045505,116.327961,"['算法', '数据分析', '数据挖掘']"
2,数据分析师（风控/反作弊）(J8KN1),乐我无限,500-2000人,"移动互联网,社交",B轮,"['带薪年假', '午餐补助', '专项奖金', '绩效奖金']",产品|需求|项目类,其他产品职位,其他产品职位,北京,朝阳区,20k-40k,15,3-5年,全职,本科,"六险一金, 用户过亿, 大牛带队",39.932032,116.536170,"['数据分析', '风控']"
3,高级数据分析师,懒人科技,50-150人,移动互联网,不需要融资,[],产品|需求|项目类,数据分析,数据分析,深圳,福田区,15k-25k,0,3-5年,全职,本科,朝阳行业 牛人聚集 领导nice 团队和谐,22.519548,114.066304,"['数据库', '新零售', '电商', 'SPSS', '数据分析', 'SQL']"
4,游戏数据分析师,广州游爱,500-2000人,"移动互联网,游戏",上市公司,"['年终分红', '绩效奖金', '专项奖金', '年底双薪']",产品|需求|项目类,数据分析,数据分析,广州,黄埔区,13k-26k,0,3-5年,全职,本科,五险一金 带薪年假 包三餐,23.171621,113.458786,"['SPSS', '数据运营', '数据分析', '游戏']"
5,数据分析师（数据挖掘方向）,路行通,500-2000人,"移动互联网,消费生活",不需要融资,"['年度旅游', '岗位晋升', '五险一金', '弹性工作']",开发|测试|运维类,数据开发,数据挖掘,成都,高新区,10k-20k,0,3-5年,全职,硕士,核心团队 自主研发 车联网,30.552538,104.068031,"['数据挖掘', '大数据', '数据分析', 'Python']"
6,数据分析专家（经理级）,路行通,500-2000人,"移动互联网,消费生活",不需要融资,"['年度旅游', '岗位晋升', '五险一金', '弹性工作']",市场|商务类,市场|营销,商业数据分析,成都,高新区,10k-15k,0,3-5年,全职,本科,车联网、高速发展平台,30.552538,104.068031,"['经营数据', '营销策略', '数据挖掘', '汽车', '数据分析']"
7,资深数据分析,保险师 · 微易信息科技,150-500人,"移动互联网,金融",B轮,"['节日礼物', '带薪年假', '年度旅游', '定期体检']",开发|测试|运维类,数据开发,数据分析,杭州,西湖区,18k-30k,0,5-10年,全职,本科,"五险一金,年度体检,带薪年假,员工旅游",29.993662,119.993591,['数据分析']
8,02325T-数据分析师（商业化）,平安人寿,2000人以上,金融,上市公司,"['绩效奖金', '带薪年假', '定期体检', '节日礼物']",开发|测试|运维类,数据开发,数据分析,深圳,福田区,15k-30k,0,5-10年,全职,本科,"五险一金,绩效奖金,带薪年假,定期体检",22.539332,114.069833,"['Hive', '数据分析', 'Python']"
9,02316O-数据分析专家（用户增长方向）,平安人寿,2000人以上,金融,上市公司,"['绩效奖金', '带薪年假', '定期体检', '节日礼物']",开发|测试|运维类,数据开发,数据分析,北京,海淀区,25k-50k,0,3-5年,全职,本科,"五险一金,绩效奖金,员工旅游,高温补贴",39.981125,116.315869,['数据分析']
10,大数据分析工程师（长沙）,华飞数据,150-500人,软件开发,未融资,[],开发|测试|运维类,后端开发,推荐算法,长沙,芙蓉区,9k-12k,14,1-3年,全职,本科,年终奖六险一金饭贴车贴绩效奖定期体检,28.194808,113.004635,"['eclipse', 'yarn', 'java', 'hive', '数据分析']"
11,数据分析专家,什么值得买,500-2000人,电子商务,上市公司,"['技能培训', '带薪年假', '各种主题趴', '海量产品体验']",产品|需求|项目类,高端产品职位,数据分析专家,北京,丰台区,18k-35k,0,3-5年,全职,本科,六险一金 年度旅游 技能培训 带薪年假,39.825481,116.300578,"['数据建模分析', '赋能', '电商', '大数据']"
12,数据分析岗,京东集团,2000人以上,电商,上市公司,"['五险一金', '带薪年假', '免费班车', '定期体检']",开发|测试|运维类,数据开发,数据开发,北京,大兴区,15k-30k,0,5-10年,全职,本科,绩效奖金，五险一金，免费班车，午餐补助,39.797041,116.513019,"['行业分析', '数据分析']"
13,数据分析专家,好未来,2000人以上,教育,上市公司,"['上市公司', '领军企业', '五险一金', '住福计划']",产品|需求|项目类,高端产品职位,数据分析专家,北京,海淀区,35k-65k,15,5-10年,全职,本科,平台,39.975037,116.304036,"['教育', '数据分析']"
14,体验数据分析,ETU,50-150人,"移动互联网,企业服务",不需要融资,"['技能培训', '节日礼物', '年底双薪', '带薪年假']",产品|需求|项目类,数据分析,其他数据分析,上海,长宁区,10k-18k,13,1-3年,全职,硕士,年度旅游季度奖金 五险一金 全年13薪,31.205078,121.433260,"['SPSS', '数据库', '商业', '数据分析']"
0,金融数据分析师,储慧国际咨询,150-500人,金融,未融资,[],金融类,互联网金融,其他互联网金融职位,北京,朝阳区,8k-16k,0,不限,全职,不限,朝九晚五 五险一金 双休弹性工作,39.920432,116.454812,"['分析师', '数据分析']"
1,数据分析leader,映客,500-2000人,文娱丨内容,上市公司,"['年底双薪', '专项奖金', '股票期权', '带薪年假']",产品|需求|项目类,数据分析,数据分析,北京,朝阳区,28k-45k,0,5-10年,全职,本科,产品属于增量期，发展空间大,39.948574,116.601144,"['数据分析', '增长黑客']"
2,资深数据分析师,乐元素游戏,500-2000人,"移动互联网,游戏",不需要融资,"['技能培训', '领导好', '节日礼物']",产品|需求|项目类,数据分析,数据分析,北京,海淀区,28k-48k,0,5-10年,全职,硕士,高福利 六险一金 扁平化,39.981536,116.305583,"['游戏', '数据分析']"
3,金融数据分析师/双休五险,储慧国际咨询,150-500人,金融,未融资,[],金融类,证券|基金|信托|期货,信托经理,北京,朝阳区,8k-16k,0,不限,全职,不限,弹性工作周末双休节日福利五险一金员工旅游,39.920065,116.454674,"['互联网', '数据分析']"
4,数据分析经理,作业帮,2000人以上,工具,D轮及以上,"['免费三餐', '技术氛围浓厚', '定期体检', '新鲜水果']",产品|需求|项目类,数据分析,数据分析,北京,海淀区,20k-30k,0,5-10年,全职,本科,平台发展前景好，团队氛围好,40.042738,116.309874,"['商业', '数据分析']"
5,高级数据分析工程师,OPPO,2000人以上,硬件,不需要融资,"['丰厚年终', '扁平管理', '追求极致', '本分']",开发|测试|运维类,数据开发,数据分析,深圳,南山区,20k-40k,0,3-5年,全职,本科,亿级优质活跃用户，高并发高可用技术挑战,22.518785,113.943044,"['Hadoop', '金融']"
6,商业数据分析师,Aibee,150-500人,"移动互联网,企业服务",A轮,"['国际化团队', '计算机视觉', '语音识别', '自然语言理解']",开发|测试|运维类,数据开发,数据分析,北京,海淀区,20k-40k,0,3-5年,全职,本科,发展前景好/六险一金/午晚餐/技术大牛,40.068612,116.197522,"['新零售', '电商', '数据分析']"
7,BI数据分析,CLPS,500-2000人,"数据服务,金融",未融资,"['专项奖金', '带薪年假', '定期体检', '交通补助']",开发|测试|运维类,数据开发,BI工程师,广州,天河区,15k-20k,13,5-10年,全职,本科,项目稳定 待遇优厚 外企氛围好,23.133492,113.333093,"['DBA', 'ETL', '保险', '互联网金融', 'DB2', 'MySQL']"
8,资深/高级数据分析-B端策略分析方向,贝壳,2000人以上,房产家居,上市公司,"['股票期权', '带薪年假', '绩效奖金', '扁平管理']",产品|需求|项目类,数据分析,数据分析,北京,海淀区,30k-40k,0,3-5年,全职,本科,年底四薪，三餐免费，班车，,40.040180,116.305611,"['可视化', '电商', '商业', '本地生活', 'BI']"
9,数据分析工程师,上海游盾,15-50人,移动互联网,不需要融资,"['带薪年假', '午餐补助', '扁平管理', '交通便利']",开发|测试|运维类,数据开发,数据分析,上海,普陀区,10k-20k,0,1-3年,全职,本科,"转正餐补,节日福利,年度旅游,五险一金",31.237934,121.415506,"['Spark', 'SQLServer', '大数据', 'Java']"
10,游戏客服（数据分析方向）,成都卓杭,150-500人,"移动互联网,游戏",不需要融资,"['带薪年假', '午餐补助', '绩效奖金', '周末双休']",运营|编辑|客服类,客服,其他客服,成都,高新区,6k-7k,0,不限,全职,大专,餐补、晋升、五险一金、下午茶、旅游福利,30.546195,104.068847,"['数据分析', '客服', '游戏客服', '客服管理']"
11,APP数据分析工程师,FOTILE方太,2000人以上,"移动互联网,电商",不需要融资,"['节日礼物', '培训发展', '年度旅游', '岗位晋升']",开发|测试|运维类,数据开发,数据分析,上海,徐汇区,12k-16k,14,3-5年,全职,本科,互联网产品 平台稳定,31.209415,121.450588,"['分类信息', '工具软件', '数仓建模', '数仓架构', '数据挖掘', 'Python']"
12,用户数据分析员,北鼎科技,150-500人,其他,上市公司,"['带薪年假', '定期体检', '年终奖金', '年度旅游']",产品|需求|项目类,产品经理,用户产品经理,深圳,南山区,15k-20k,13,3-5年,全职,本科,发展前景，团队氛围，双休,22.588175,113.999379,"['流程设计', '用户研究', '数据分析']"
13,资深数据分析师-数据方向,贝壳,2000人以上,房产家居,上市公司,"['股票期权', '带薪年假', '绩效奖金', '扁平管理']",产品|需求|项目类,数据分析,数据分析,北京,海淀区,30k-45k,16,3-5年,全职,不限,年底四薪，三餐免费，内部机会多，年假多,40.047659,116.306882,"['数据库', '电商', '商业', '本地生活', '数据分析']"
14,产品经理（数据分析）,新明珠集团,2000人以上,"电商,房产家居",未融资,[],产品|需求|项目类,产品经理,产品经理,佛山,禅城区,13k-26k,0,3-5年,全职,本科,五险一金 餐补 话费补贴,22.957851,113.014427,"['竞品分析', '需求分析', '用户研究', '数据分析']"
0,用户数据分析员,北鼎科技,150-500人,其他,上市公司,"['带薪年假', '定期体检', '年终奖金', '年度旅游']",产品|需求|项目类,产品经理,用户产品经理,深圳,南山区,15k-20k,13,3-5年,全职,本科,发展前景，团队氛围，双休,22.588175,113.999379,"['流程设计', '用户研究', '数据分析']"
1,资深数据分析师-数据方向,贝壳,2000人以上,房产家居,上市公司,"['股票期权', '带薪年假', '绩效奖金', '扁平管理']",产品|需求|项目类,数据分析,数据分析,北京,海淀区,30k-45k,16,3-5年,全职,不限,年底四薪，三餐免费，内部机会多，年假多,40.047659,116.306882,"['数据库', '电商', '商业', '本地生活', '数据分析']"
2,产品经理（数据分析）,新明珠集团,2000人以上,"电商,房产家居",未融资,[],产品|需求|项目类,产品经理,产品经理,佛山,禅城区,13k-26k,0,3-5年,全职,本科,五险一金 餐补 话费补贴,22.957851,113.014427,"['竞品分析', '需求分析', '用户研究', '数据分析']"
3,高级/资深数据分析师,尔湾科技,500-2000人,"移动互联网,教育",D轮及以上,"['绩效奖金', '弹性工作', '领导好', '技能培训']",开发|测试|运维类,数据开发,数据分析,北京,朝阳区,20k-35k,14,5-10年,全职,本科,平台增速快 收获大,40.021963,116.474814,"['sql', '数据分析', 'Python']"
4,产品经理（数据分析）,八爪鱼,50-150人,数据服务,A轮,"['重职业规划', '团队有趣高效', '大数据+AI', '加班调休']",产品|需求|项目类,产品经理,数据产品经理,深圳,南山区,15k-30k,0,3-5年,全职,本科,AI+大数据；氛围活跃；新技术,22.550771,113.942403,"['云计算', '产品设计', '数据分析', '需求分析', '大数据']"
5,高级数据分析师（互联网方向）,上海趣致,150-500人,"移动互联网,电商",C轮,"['带薪年假', '通讯津贴', '交通补助', '绩效奖金']",产品|需求|项目类,产品经理,数据分析师,上海,杨浦区,13k-18k,13,3-5年,全职,本科,五险一金 弹性工作 年终奖金 绿色办公,31.274428,121.550057,"['新零售', '移动互联网', '数据分析']"
6,商业数据分析师,驰骛科技ChiefClouds,50-150人,"数据服务,移动互联网",A轮,[],产品|需求|项目类,数据分析,数据分析,上海,徐汇区,15k-30k,13,3-5年,全职,本科,互联网氛围 年假多 不打卡 地铁周边 员工餐,31.172082,121.402129,"['广告营销', 'Phython', '大数据', '商业', '数据分析', 'SQL']"
7,数据分析(BI方向）,盈富斯,150-500人,电商,C轮,"['股票期权', '带薪年假', '五险一金', '弹性工作']",开发|测试|运维类,数据开发,数据分析,深圳,南山区,10k-15k,0,1-3年,全职,本科,国际化团队 知名风投 有大牛,22.556626,113.941234,"['电商', 'Python', '数据分析', 'MySQL']"
8,临床数据分析员,艾迪泰科,150-500人,其他,不需要融资,"['带薪年假', '弹性工作', '午餐补助', '六险一金']",化工|生物|制药|医护,生物|制药|医疗器械,临床数据分析员,北京,海淀区,7k-12k,13,不限,全职,本科,六险一金 节日福利 餐补 带薪年假,40.044532,116.299033,"['医疗健康', '移动互联网', '数据分析']"
9,数据分析师,51公积金管家,150-500人,移动互联网,B轮,"['技能培训', '股票期权', '带薪年假', '扁平管理']",产品|需求|项目类,产品经理,数据分析师,杭州,西湖区,10k-15k,0,1-3年,全职,本科,团队大牛，弹性工作制加班少，环境氛围好,30.291563,120.068048,"['金融', '数据分析']"
10,数据分析师（医学大数据）,广东顺德中山大学卡内基梅隆大学国际联合研究院,15-50人,"人工智能,区块链",不需要融资,[],开发|测试|运维类,人工智能,机器学习,广州,天河区,16k-18k,0,3-5年,全职,硕士,事业单位正式合同聘用,23.125473,113.319061,"['临床数据分析', '医疗健康', '深度学习', '大数据']"
11,高级数据分析师,敦煌网,500-2000人,电商,D轮及以上,"['带薪年假', '定期体检', '绩效奖金', '年终分红']",开发|测试|运维类,数据开发,数据分析,北京,海淀区,15k-25k,14,3-5年,全职,本科,学习机会,39.992318,116.338900,"['数据仓库', '电商']"
12,高级数据分析师（五险一金+双休+丰厚福利）,安徽省刀锋网络科技有限公司,500-2000人,"移动互联网,游戏",B轮,"['年底双薪', '专项奖金', '年终分红', '带薪年假']",开发|测试|运维类,数据开发,数据分析,郑州,中原区,10k-15k,0,3-5年,全职,本科,公司发展前景好，团队实力强,34.806744,113.607043,"['大数据', 'Python']"
13,高级数据分析师,金山办公软件,2000人以上,移动互联网,上市公司,"['年底双薪', '节日礼物', '技能培训', '绩效奖金']",产品|需求|项目类,数据分析,数据分析,北京,海淀区,15k-25k,0,3-5年,全职,本科,"六险一金,三餐免费,免费下午茶,各种团建",40.033279,116.337595,"['大数据', '商业', '数据分析']"
14,数据分析/数据产品-高星业务,美团,2000人以上,消费生活,上市公司,"['技能培训', '绩效奖金', '岗位晋升', '领导好']",运营|编辑|客服类,运营,其他运营,北京,朝阳区,15k-30k,0,1-3年,全职,本科,发展空间大；扁平化管理,39.995197,116.466485,"['数据', '数据分析']"
0,SG闪购-数据分析（O2O新供给）,美团,2000人以上,消费生活,上市公司,"['技能培训', '绩效奖金', '岗位晋升', '领导好']",产品|需求|项目类,数据分析,其他数据分析,北京,朝阳区,20k-40k,0,不限,全职,不限,平台大，机会多,40.008142,116.486622,['数据分析']
1,022440-数据分析岗,平安人寿,2000人以上,金融,上市公司,"['绩效奖金', '带薪年假', '定期体检', '节日礼物']",金融类,保险,其他保险职位,深圳,福田区,10k-20k,0,1年以下,全职,本科,"五险一金,带薪年假,节日福利,定期体检",22.533344,114.055755,"['金融', '保险']"
2,0231U6-数据分析岗,平安人寿,2000人以上,金融,上市公司,"['绩效奖金', '带薪年假', '定期体检', '节日礼物']",产品|需求|项目类,数据分析,数据分析,深圳,福田区,15k-20k,0,1-3年,全职,本科,"五险一金,绩效奖金,定期体检,节日福利",22.533181,114.055639,"['大数据', '金融', 'BI', '数据分析']"
3,数据分析师（销售业务方向）(J10124),阿芙精油,500-2000人,电商,C轮,"['美女多', '帅哥多', '免费班车', '扁平管理']",产品|需求|项目类,数据分析,数据分析,北京,朝阳区,15k-30k,13,1-3年,全职,本科,扁平 空间 成长 授权,39.988138,116.500284,"['电商', '商业', '数据分析']"
4,经营数据分析专家,谊品生鲜,2000人以上,消费生活,B轮,[],市场|商务类,市场|营销,商业数据分析,杭州,拱墅区,8k-15k,0,3-5年,全职,本科,双休，团队技术氛围好,30.323015,120.132296,['数据分析']
5,大数据分析,移动通信,2000人以上,"数据服务,通讯电子",不需要融资,[],开发|测试|运维类,数据开发,数据分析,北京,东城区,28k-50k,0,3-5年,全职,硕士,五险两金,39.937195,116.432457,"['移动互联网', '数据挖掘']"
6,数据分析师（产品运营）,点众科技,150-500人,"移动互联网,文娱丨内容",不需要融资,"['年底双薪', '股票期权', '专项奖金', '绩效奖金']",产品|需求|项目类,产品经理,数据分析师,北京,海淀区,14k-28k,14,3-5年,全职,本科,五险一金 免费下午茶,39.980092,116.368056,"['需求分析', '移动互联网', '产品策划', '数据分析']"
7,数据分析师（市场投放侧）,点众科技,150-500人,"移动互联网,文娱丨内容",不需要融资,"['年底双薪', '股票期权', '专项奖金', '绩效奖金']",产品|需求|项目类,产品经理,数据分析师,北京,海淀区,14k-28k,14,3-5年,全职,本科,五险一金 免费下午茶,39.980092,116.368056,"['需求分析', '广告营销', '产品策划', '数据分析']"
8,数据分析师,36氪,500-2000人,"移动互联网,电商",上市公司,"['帅哥多', '美女多', '岗位晋升', '五险一金']",开发|测试|运维类,数据开发,数据分析,北京,朝阳区,15k-25k,15,3-5年,全职,本科,上市公司 扁平化,39.932260,116.477087,"['数仓工程师', '大数据', '分类信息', '数据挖掘']"
9,数据分析师（产品方向）,鲸鱼外教培优,500-2000人,教育,B轮,"['交通补助', '绩效奖金', '带薪年假', '节日礼物']",产品|需求|项目类,产品经理,数据分析师,北京,朝阳区,15k-25k,13,3-5年,全职,本科,发展空间大，团队氛围好,39.988320,116.478810,['数据分析']
10,数据分析负责人,鲸鱼外教培优,500-2000人,教育,B轮,"['交通补助', '绩效奖金', '带薪年假', '节日礼物']",市场|商务类,市场|营销,商业数据分析,北京,朝阳区,25k-50k,13,5-10年,全职,本科,带薪年假、团队大牛、领导nice,39.975407,116.498253,"['教育', '数据分析']"
11,数据分析师,亿达信息,2000人以上,"企业服务,人工智能",上市公司,[],产品|需求|项目类,产品经理,数据分析师,深圳,南山区,9k-12k,13,3-5年,全职,本科,双休，年终奖，下午茶，入职即买六险一金,22.522611,113.939444,"['数据提取', 'sql', 'hive', '数据分析']"
12,BA数据分析实习生（可留用）,arvato China,2000人以上,"广告营销,数据服务",不需要融资,"['五险一金', '通讯津贴', '交通补助', '带薪年假']",产品|需求|项目类,数据分析,数据分析,上海,静安区,2k-3k,0,不限,兼职,本科,500强外资 CRM agcney,31.280903,121.441973,"['广告营销', '数据库', 'SPSS', '数据分析', 'SQL']"
13,数据分析师,亿达信息,2000人以上,"企业服务,人工智能",上市公司,[],产品|需求|项目类,产品经理,数据分析师,广州,海珠区,6k-8k,0,1-3年,全职,本科,六险一金,23.105685,113.321230,"['python', '数据提取', '数据分析', 'SQL']"
14,财务数据分析师,顺联动力,150-500人,"移动互联网,电商",不需要融资,"['年终分红', '绩效奖金', '定期体检', '年底双薪']",综合职能|高级管理,财务,财务风控,杭州,滨江区,10k-20k,0,3-5年,全职,本科,发展前景,30.211334,120.216493,"['财务', '分析', '电商', '风控', '资产/项目评估']"
0,财务数据分析师,顺联动力,150-500人,"移动互联网,电商",不需要融资,"['年终分红', '绩效奖金', '定期体检', '年底双薪']",综合职能|高级管理,财务,财务风控,杭州,滨江区,10k-20k,0,3-5年,全职,本科,发展前景,30.211334,120.216493,"['财务', '分析', '电商', '风控', '资产/项目评估']"
1,运营数据分析师,参数,15-50人,移动互联网,不需要融资,[],运营|编辑|客服类,运营,数据运营,广州,越秀区,7k-10k,0,1-3年,全职,本科,周末双休、五险一金,23.126712,113.297257,"['大数据', '云计算', '数据分析']"
2,财务数据分析师,Helens,2000人以上,"消费生活,文娱丨内容",不需要融资,"['带薪年假', '消费5折', '扁平管理', '美女多']",综合职能|高级管理,财务,财务分析师,深圳,南山区,30k-50k,0,3-5年,全职,本科,弹性工作，包食宿，别墅办公,22.486094,113.911537,"['数据分析', '分析']"
3,数据分析高级主管（客服中心方向）,全球购骑士特权,500-2000人,电商,A轮,"['交通补助', '带薪年假', '定期体检', '弹性工作']",开发|测试|运维类,数据开发,数据分析,广州,天河区,10k-12k,13,1-3年,全职,本科,业务发展迅猛 扁平化团队,23.147158,113.325949,"['数仓建模', '数据仓库', '电商', '数据挖掘', '数据库开发', '大数据']"
4,高级数据分析师（海外）,触宝,500-2000人,"移动互联网,数据服务",上市公司,"['美股上市', '行业独角兽', '年底双薪', '绩效奖金']",开发|测试|运维类,数据开发,数据分析,上海,闵行区,20k-40k,14,3-5年,全职,本科,上市公司/移动互联网,31.159507,121.354889,"['广告变现', '数据分析']"
5,风险数据分析师,融360,500-2000人,金融,上市公司,"['股票期权', '专项奖金', '通讯津贴', '带薪年假']",开发|测试|运维类,数据开发,数据挖掘,北京,海淀区,12k-20k,15,1-3年,全职,本科,六险一金、带薪年病假、周末双休、15薪,39.979691,116.312978,"['互联网金融', '数据分析']"
6,高级数据分析师,COGO开果,15-50人,文娱丨内容,天使轮,[],开发|测试|运维类,数据开发,数据分析,北京,朝阳区,15k-30k,0,3-5年,全职,本科,公司平台好 发展空间大,39.932996,116.454266,"['Hive', '数据分析']"
7,腾讯广告数据分析工程师（深圳）,腾讯,2000人以上,社交,上市公司,"['免费班车', '成长空间', '年度旅游', '岗位晋升']",开发|测试|运维类,数据开发,数据分析,深圳,南山区,25k-35k,0,3-5年,全职,本科,大平台；发展前景；福利待遇,22.522641,113.934494,"['Linux', '数据分析', 'MySQL']"
8,数据应用工程师(偏数据分析+数据可视化),腾讯,2000人以上,社交,上市公司,"['免费班车', '成长空间', '年度旅游', '岗位晋升']",开发|测试|运维类,数据开发,数据分析,深圳,南山区,28k-46k,0,3-5年,全职,本科,福利待遇、稳定性、学习成长性,22.522641,113.934494,"['Hive', '互联网金融', '数据仓库', '支付', '数据分析', '信息安全']"
9,数据分析师,一条视频,150-500人,电商,C轮,"['年底双薪', '带薪年假', '午餐补助', '定期体检']",产品|需求|项目类,产品经理,数据分析师,上海,徐汇区,15k-25k,13,3-5年,全职,本科,晋升空间 潜力大 有挑战性,31.169677,121.407124,"['电商', '数据分析']"
10,数据分析师（数据运营）,盛业资本,150-500人,"金融,数据服务",上市公司,[],产品|需求|项目类,数据分析,数据分析,深圳,福田区,10k-15k,15,1-3年,全职,本科,香港上市公司，福利齐全，团队氛围好,22.528466,114.061547,"['金融', '数据运营', '数据分析', 'SQL']"
11,高级数据分析师,二维火,500-2000人,"移动互联网,消费生活",B轮,"['股票期权', 'BAT技术', '年度旅游', '五险一金']",开发|测试|运维类,数据开发,数据分析,杭州,拱墅区,18k-26k,0,3-5年,全职,本科,氛围融洽 前景广阔,30.295997,120.134335,"['本地生活', '云计算', '数据仓库', 'ETL']"
12,数据分析实习生,转转,500-2000人,"移动互联网,消费生活",B轮,"['带薪年假', '定期体检', '交通补助', '年底双薪']",产品|需求|项目类,数据分析,数据分析,北京,海淀区,3k-5k,0,不限,全职,本科,成长空间,40.039775,116.360315,['数据分析']
13,数据分析师（数据科学方向）,一面数据,50-150人,"移动互联网,数据服务",不需要融资,"['海归精英团队', '年度旅游', '定期体检', '年终分红']",产品|需求|项目类,数据分析,数据分析,深圳,南山区,10k-20k,0,1-3年,全职,本科,大数据人工智能；名校系大牛；技术氛围浓,22.537843,113.944830,"['大数据', '数据分析']"
14,高级数据分析师（数据挖掘方向）,来电科技,2000人以上,"移动互联网,消费生活",B轮,"['五险一金', '岗位晋升', '扁平管理', '带薪年假']",开发|测试|运维类,数据开发,数据分析,深圳,南山区,25k-40k,13,5-10年,全职,本科,业务场景多样化 高频数据积累 核心岗位,22.571945,113.946716,"['物联网', '数据架构', '数仓建模', '数仓架构', '数据挖掘', '本地生活']"
0,数据分析主管,永辉金融,50-150人,金融,未融资,[],产品|需求|项目类,数据分析,数据分析,重庆,江北区,10k-15k,0,3-5年,全职,本科,大品牌好平台，领导nice，弹性工作制,29.589561,106.480244,"['BI', 'SQL', '可视化', '数据分析']"
1,高级数据分析工程师(J12771),新东方,2000人以上,教育,上市公司,[],开发|测试|运维类,数据开发,数据分析,北京,海淀区,25k-30k,15,5-10年,全职,本科,教育行业、福利好、大牛多,39.983431,116.317541,"['SQl', '数据分析', 'Python']"
2,数据分析/市场方向(J11127),易车公司,2000人以上,"移动互联网,电商",上市公司,"['技能培训', '节日礼物', '绩效奖金', '岗位晋升']",市场|商务类,市场|营销,商业数据分析,北京,海淀区,12k-15k,14,1-3年,全职,本科,核心业务、大平台、七险一金,39.938109,116.327323,"['市场策划', '市场分析', '行业分析', '电商', '汽车', '数据分析']"
3,金融数据分析师,盛业恒泰投资,50-150人,金融,未融资,[],开发|测试|运维类,数据开发,数据分析,北京,朝阳区,12k-15k,0,不限,全职,不限,弹性办公 周末双休 带薪年假,39.919894,116.454562,"['互联网金融', '数据分析']"
4,高级数据分析师,天弘基金,500-2000人,金融,不需要融资,"['互联网金融', '带薪年假', '岗位晋升', '扁平管理']",开发|测试|运维类,数据开发,数据分析,北京,西城区,20k-30k,15,3-5年,全职,本科,行业前景好，发展前景佳，团队氛围好,39.918030,116.354000,"['金融', 'Python']"
5,高级数据分析师-北京,美图公司,2000人以上,硬件,上市公司,"['节日礼物', '与大牛共事', '福利健全', '五险一金']",开发|测试|运维类,数据开发,数据分析,北京,海淀区,20k-35k,0,3-5年,全职,本科,"精英团队,大数据平台,技术驱动",39.991880,116.338950,"['移动互联网', '数据分析']"
6,SG闪购-数据分析（O2O新供给）,美团,2000人以上,消费生活,上市公司,"['技能培训', '绩效奖金', '岗位晋升', '领导好']",产品|需求|项目类,数据分析,其他数据分析,北京,朝阳区,20k-40k,0,不限,全职,不限,平台大，机会多,40.008142,116.486622,['数据分析']
7,人力资源数据分析师,美团,2000人以上,消费生活,上市公司,"['技能培训', '绩效奖金', '岗位晋升', '领导好']",产品|需求|项目类,数据分析,其他数据分析,北京,朝阳区,25k-45k,0,不限,全职,不限,数据资源丰富,40.008142,116.486622,['数据分析']
8,数据分析师--SQL,arvato China,2000人以上,"广告营销,数据服务",不需要融资,"['五险一金', '通讯津贴', '交通补助', '带薪年假']",开发|测试|运维类,运维,其他运维,上海,闸北区,7k-12k,0,3-5年,全职,不限,提升空间大 培训体系完善 数据接触面广,30.994061,120.993464,['数据分析']
9,数据分析师（业务分析方向） (MJ001167),钱大妈,2000人以上,消费生活,D轮及以上,"['绩效奖金', '弹性工作', '公司提供午餐', '股票期权']",开发|测试|运维类,数据开发,数据分析,广州,海珠区,15k-23k,13,3-5年,全职,本科,发展快 空间大 团队专业 氛围好,23.073875,113.315529,"['R', 'Hadoop', '商业分析', 'Python']"
10,诚招金融数据分析15K,储慧国际咨询,150-500人,金融,未融资,[],金融类,其他金融职位,其他金融职位,北京,朝阳区,10k-15k,0,不限,全职,不限,五险一金，弹性工作，无需坐班,39.920065,116.454674,"['互联网金融', '数据分析']"
11,数据分析/挖掘师,锐捷网络,2000人以上,"移动互联网,硬件",上市公司,"['年底双薪', '出国旅游', '节日礼物', '技能培训']",开发|测试|运维类,数据开发,数据分析,北京,海淀区,25k-40k,14,5-10年,全职,本科,上市公司,39.908331,116.303255,"['数据分析', '数据挖掘']"
12,数据分析师（体育）,加满分科技,50-150人,"移动互联网,社交",不需要融资,"['年底双薪', '专项奖金', '定期体检', '带薪年假']",开发|测试|运维类,数据开发,数据分析,深圳,南山区,15k-25k,0,3-5年,全职,本科,氛围轻松，发展前景好,22.543471,113.941133,"['体育', '大数据', '数据分析']"
13,高级数据分析师,中康资讯,150-500人,"移动互联网,医疗丨健康",不需要融资,"['扁平管理', '岗位晋升', '五险一金', '绩效奖金']",开发|测试|运维类,数据开发,数据分析,广州,天河区,20k-35k,15,5-10年,全职,本科,五险一金，弹性上班，带薪年假,23.125871,113.334874,"['医疗健康', '数据分析']"
14,数据分析,光光网络,500-2000人,教育 数据服务,天使轮,[],产品|需求|项目类,数据分析,数据分析,北京,海淀区,31k-60k,0,5-10年,全职,本科,晋升空间大，发展规划明确,40.053902,116.313599,"['大数据', '数据库', '数据分析', '商业', '电商', 'BI']"
0,金融数据分析 15K,盛业恒泰投资,50-150人,金融,未融资,[],金融类,其他金融职位,其他金融职位,北京,朝阳区,10k-20k,0,不限,全职,本科,朝九晚五 周末双休 五险一金 带薪年假,39.919894,116.454562,"['互联网金融', '数据分析']"
1,资深数据分析师,JoyCastle,50-150人,"移动互联网,游戏",不需要融资,"['带薪年假', '年底双薪', '专项奖金', '股票期权']",开发|测试|运维类,数据开发,数据分析,北京,朝阳区,30k-40k,13,5-10年,全职,本科,"交通便利,办公环境好,福利待遇好,团队氛围好",39.932248,116.453971,"['Tableau', '游戏', '量化分析', '数据分析', 'Python']"
2,资深游戏数据分析师,网易,2000人以上,电商,上市公司,"['节日礼物', '技能培训', '免费班车', '带薪年假']",开发|测试|运维类,数据开发,数据分析,广州,天河区,20k-35k,16,3-5年,全职,本科,大平台,23.122699,113.321767,"['Hive', '游戏']"
3,游戏数据分析师-广州,网易,2000人以上,电商,上市公司,"['节日礼物', '技能培训', '免费班车', '带薪年假']",产品|需求|项目类,数据分析,数据分析,广州,天河区,15k-20k,13,1-3年,全职,本科,大平台,23.122699,113.321767,"['游戏', '数据分析']"
4,数据分析(J10303),包银消费金融,150-500人,金融,不需要融资,"['年底双薪', '年终分红', '定期体检', '节日礼物']",开发|测试|运维类,数据开发,数据分析,北京,朝阳区,10k-20k,13,1-3年,全职,不限,六险一金，年终奖，节日福利金等,39.986888,116.425245,"['R', 'Python', 'SAS', '数据分析', 'SQL']"
5,高级数据分析师,小鸡叫叫,500-2000人,"移动互联网,文娱丨内容",B轮,"['岗位晋升', '扁平管理', '顶级项目', '年底1-3薪']",开发|测试|运维类,数据开发,数据分析,成都,高新区,15k-25k,14,3-5年,全职,本科,平台发展 周末双休 年终奖金,30.555252,104.066554,"['挖掘数据', '数据分析']"
6,数据分析实习(可留用),算话智能科技有限公司,50-150人,"数据服务,移动互联网",B轮,"['股票期权', '交通补助', '绩效奖金', '优秀团队']",产品|需求|项目类,数据分析,数据分析,上海,青浦区,3k-5k,0,不限,全职,不限,优秀团队、股票期权、绩效奖金、福利补贴,31.189954,121.297302,"['大数据', '数据分析']"
7,风控数据分析师,一零跃动,150-500人,"数据服务,软件开发",不需要融资,"['年底双薪', '午餐补助', '定期体检', '弹性工作']",金融类,互联网金融,分析师,北京,朝阳区,15k-25k,14,不限,全职,本科,打不卡 技术大牛 成长快,39.906973,116.630587,"['策略设计', '金融', '风控']"
8,高级数据分析师,一手,500-2000人,"移动互联网,电商",C轮,"['节日礼物', '团队靠谱', '活动多多', '相当民主']",市场|商务类,市场|营销,商业数据分析,广州,荔湾区,30k-45k,0,5-10年,全职,本科,发展空间大 月流水过亿,23.130998,113.218307,"['市场', '大数据', '行业分析', '电商', '消费者分析', '数据分析']"
9,数据分析开发工程师（数据挖掘/分析方向）,途虎养车网,2000人以上,汽车丨出行,D轮及以上,"['技能培训', '节日礼物', '岗位晋升', '领导好']",开发|测试|运维类,数据开发,数据挖掘,上海,闵行区,25k-40k,0,3-5年,全职,本科,独角兽 大牛云集 临近地铁 多次调薪,31.130000,121.395268,"['数据分析', '数据挖掘']"
10,风控数据分析师,小赢科技,500-2000人,金融,上市公司,"['五险一金', '年底奖金', '专项激励', '弹性工作']",产品|需求|项目类,数据分析,数据分析,上海,黄浦区,18k-25k,15,1-3年,全职,本科,专业团队 股东背景 发展潜力,31.232590,121.481790,"['互联网金融', '数据分析', 'SQL']"
11,金融数据分析师,小赢科技,500-2000人,金融,上市公司,"['五险一金', '年底奖金', '专项激励', '弹性工作']",开发|测试|运维类,数据开发,数据分析,上海,黄浦区,18k-26k,17,3-5年,全职,本科,专业团队 股东背景 发展潜力,31.232590,121.481790,"['Hadoop', 'MySQL', '互联网金融', '数据挖掘', 'Python']"
12,高级数据分析 (MJ000029),途虎养车网,2000人以上,汽车丨出行,D轮及以上,"['技能培训', '节日礼物', '岗位晋升', '领导好']",产品|需求|项目类,数据分析,数据分析,上海,闵行区,20k-40k,14,5-10年,全职,本科,"管理完善,福利好,E轮融资,千人规模",31.130000,121.395268,"['商业', '数据分析']"
13,游戏数据分析师,Goat Games,50-150人,游戏,上市公司,"['午餐补助', '年终奖', '绩效奖金', '年度旅游']",产品|需求|项目类,数据分析,数据分析,广州,天河区,10k-18k,14,1-3年,全职,本科,双休 成长快 薪酬福利好,23.147158,113.325949,"['SQL', '数据运营', '可视化', '数据分析']"
14,资深数据分析师,爱奇艺,2000人以上,文娱丨内容,上市公司,"['绩效奖金', '五险一金', '交通补助', '带薪年假']",开发|测试|运维类,数据开发,数据分析,北京,海淀区,25k-30k,14,3-5年,全职,硕士,核心业务/双休,39.983752,116.313228,['数据分析']
0,风控数据分析师,小赢科技,500-2000人,金融,上市公司,"['五险一金', '年底奖金', '专项激励', '弹性工作']",产品|需求|项目类,数据分析,数据分析,上海,黄浦区,18k-25k,15,1-3年,全职,本科,专业团队 股东背景 发展潜力,31.232590,121.481790,"['互联网金融', '数据分析', 'SQL']"
1,金融数据分析师,小赢科技,500-2000人,金融,上市公司,"['五险一金', '年底奖金', '专项激励', '弹性工作']",开发|测试|运维类,数据开发,数据分析,上海,黄浦区,18k-26k,17,3-5年,全职,本科,专业团队 股东背景 发展潜力,31.232590,121.481790,"['Hadoop', 'MySQL', '互联网金融', '数据挖掘', 'Python']"
2,高级数据分析 (MJ000029),途虎养车网,2000人以上,汽车丨出行,D轮及以上,"['技能培训', '节日礼物', '岗位晋升', '领导好']",产品|需求|项目类,数据分析,数据分析,上海,闵行区,20k-40k,14,5-10年,全职,本科,"管理完善,福利好,E轮融资,千人规模",31.130000,121.395268,"['商业', '数据分析']"
3,游戏数据分析师,Goat Games,50-150人,游戏,上市公司,"['午餐补助', '年终奖', '绩效奖金', '年度旅游']",产品|需求|项目类,数据分析,数据分析,广州,天河区,10k-18k,14,1-3年,全职,本科,双休 成长快 薪酬福利好,23.147158,113.325949,"['SQL', '数据运营', '可视化', '数据分析']"
4,资深数据分析师,爱奇艺,2000人以上,文娱丨内容,上市公司,"['绩效奖金', '五险一金', '交通补助', '带薪年假']",开发|测试|运维类,数据开发,数据分析,北京,海淀区,25k-30k,14,3-5年,全职,硕士,核心业务/双休,39.983752,116.313228,['数据分析']
5,大数据分析助理,成都肆零肆,50-150人,"信息安全,数据服务",未融资,"['弹性工作', '帅哥多', '节日礼物', '管理规范']",商业服务|专业服务,咨询|调研,情报信息分析人员,成都,武侯区,4k-8k,0,不限,全职,大专,"五险一金,带薪年假,项目提成,周末双休",30.625682,104.041018,"['文字功底', '大数据', '数据分析', '情报分析']"
6,微信游戏数据分析,微创软件,2000人以上,"企业服务,移动互联网",不需要融资,"['绩效奖金', '带薪年假', '定期体检', '弹性工作']",市场|商务类,市场|营销,商业数据分析,深圳,南山区,9k-14k,0,1-3年,全职,本科,朝九晚六 周末双休 六险一金 带薪年假,22.522611,113.939444,"['埋点', '行业分析', '游戏', '数据分析', 'SQL']"
7,电商数据分析师,唱吧-玩音乐，就上唱吧！,150-500人,"移动互联网,游戏",D轮及以上,"['节日礼物', '股票期权', '带薪年假', '员工海外游']",开发|测试|运维类,数据开发,数据分析,北京,朝阳区,20k-30k,0,5-10年,全职,本科,福利好 弹性工作时间,39.948574,116.601144,"['电商', '数据分析']"
8,战略数据分析师,乐纯酸奶,150-500人,消费生活,D轮及以上,"['七险一金', '免费午晚餐', '电影票、奶票', '扁平管理']",市场|商务类,市场|营销,商业数据分析,北京,朝阳区,18k-25k,0,3-5年,全职,本科,D轮独角兽 互联网健康食品 弹性工作,39.899777,116.471041,"['行业分析', '消费者分析', '数据分析']"
9,数据分析师-智慧社区,建信金科,2000人以上,"金融,软件开发",不需要融资,"['绩效奖金', '带薪年假', '交通补助', '通讯津贴']",产品|需求|项目类,数据分析,数据分析,广州,天河区,20k-40k,0,3-5年,全职,本科,六险二金、餐补、定期体检、带薪年假,23.124171,113.373035,"['数据库', '数据分析']"
10,数据分析专家,触宝,500-2000人,"移动互联网,数据服务",上市公司,"['美股上市', '行业独角兽', '年底双薪', '绩效奖金']",产品|需求|项目类,数据分析,数据分析,上海,闵行区,30k-60k,0,5-10年,全职,本科,美股上市 牛人团队 亿级日活 福利待遇佳,31.159507,121.354889,"['商业', '增长黑客', '数据分析']"
11,数据分析师(J10697),伴鱼口语,2000人以上,移动互联网,C轮,"['带薪年假', '交通补助', '五险一金', '住宿补贴']",开发|测试|运维类,数据开发,数据分析,北京,海淀区,20k-40k,14,3-5年,全职,本科,福利好、空间大、产品棒,39.970753,116.378536,['数据分析']
12,高级数据分析师,极光,500-2000人,企业服务,上市公司,"['五险一金', '文体活动', '团建旅游', '美味晚餐']",产品|需求|项目类,数据分析,数据分析,深圳,南山区,25k-35k,0,3-5年,全职,本科,"五险一金,奖金丰厚,福利多多,定期体检",22.550224,113.908469,"['商业', '数据库', '数据分析', 'SQL']"
13,游戏数据分析师,奇客创想,150-500人,"移动互联网,游戏",不需要融资,"['五险一金', '带薪年假', '年底双薪', '绩效奖金']",运营|编辑|客服类,运营,游戏运营,北京,海淀区,12k-16k,13,1-3年,全职,本科,五险一金 全勤奖 免费班车 带薪年假,39.972134,116.329519,"['市场', '游戏', '活动运营', '游戏运营', '数据分析']"
14,数据分析（广告优化） (MJ002029),SHEIN,2000人以上,"电商,移动互联网",C轮,[],开发|测试|运维类,数据开发,数据分析,南京,雨花台区,5k-8k,0,1-3年,全职,本科,SHEIN-快时尚跨境电子商务,31.974269,118.755582,['数据分析']
